stop_id,stop_name,stop_lat,stop_lon
04040,EstacióndetrenZaragoza-Delicias,41.658649,-0.911615
05102,EstacióndetrenSanXoán,43.494664,-8.213713
05103,EstacióndetrenSantaIcía,43.500113,-8.199581
05104,EstacióndetrenVirxeDoMar,43.496509,-8.204876
05105,EstacióndetrenPiÑeiros,43.509526,-8.183968
05106,EstacióndetrenOPonto,43.514774,-8.177783
05107,EstacióndetrenXuvia,43.517113,-8.161322
05108,EstacióndetrenOAltoDoCastiÑeiro,43.503179,-8.195559
05109,EstacióndetrenFerrerías,43.527976,-8.150454
05111,EstacióndetrenSedes,43.542607,-8.140199
05113,EstacióndetrenPedrosoDeNarón,43.536748,-8.109213
05115,EstacióndetrenSanSadurniÑo,43.546021,-8.077931
05117,EstacióndetrenLamas,43.5472900,-8.0492450
05119,EstacióndetrenApalla,43.5504630,-8.0186490
05121,EstacióndetrenMoeche,43.562171,-8.002732
05123,EstacióndetrenLabacengos,43.56528,-7.980225
05125,EstacióndetrenEntrambarrías,43.57706,-7.954257
05127,EstacióndetrenCerdido,43.5872050,-7.9346260
05129,EstacióndetrenACuqueira,43.6078760,-7.9218320
05131,EstacióndetrenSantaMariaDeMera,43.6409800,-7.9161920
05133,EstacióndetrenPontemera,43.6660730,-7.9026410
05135,EstacióndetrenSanClodio,43.660887,-7.873495
05137,EstacióndetrenSerna,43.668783,-7.8545455
05139,EstacióndetrenOrtigueira,43.686268,-7.849488
05201,EstacióndetrenGijónRam,43.535175,-5.698318
05203,EstacióndetrenTremaÑes-CarreÑo,43.528549,-5.694869
05204,EstacióndetrenCentruDeTresportes,43.531135,-5.706739
05207,EstacióndetrenAboÑoApd,43.5550500,-5.7235900
05208,EstacióndetrenXibares,43.565927,-5.728723
05209,EstacióndetrenPerlora,43.5807800,-5.7536800
05210,EstacióndetrenCandásApd,43.5865400,-5.7680100
05211,EstacióndetrenCandás,43.584718,-5.772722
05213,EstacióndetrenElRegueral,43.5804800,-5.7976300
05215,EstacióndetrenSanZabornín,43.5690800,-5.8253300
05216,EstacióndetrenGudín-Llaminación,43.552295,-5.865382
05217,EstacióndetrenTrasona/Tresona,43.5518000,-5.8743800
05218,EstacióndetrenOficines,43.551308,-5.877217
05219,EstacióndetrenLlaranes,43.5541500,-5.8970300
05220,EstacióndetrenCristalería,43.5755430,-5.9293450
05221,EstacióndetrenAvilésApd,43.554627,-5.917472
05222,EstacióndetrenAvilés-Cim,43.5612740,-5.9229240
05224,EstacióndetrenRaícesNuevo/LaFundición,43.576334,-5.939915
05225,EstacióndetrenSalinas,43.5703900,-5.9566300
05227,EstacióndetrenPiedrasblancas,43.556554,-5.975562
05229,EstacióndetrenVegarrozadas,43.551162,-5.99556
05231,EstacióndetrenSantiagu\'lMonte,43.540979,-6.028002
05232,EstacióndetrenElParador,43.5352400,-6.0705300
05233,EstacióndetrenSotu\'lBarcu,43.5292900,-6.0712400
05235,EstacióndetrenRiberas,43.502742,-6.074331
05237,EstacióndetrenPeÑaullán,43.491163,-6.093979
05239,EstacióndetrenSantianes,43.503755,-6.091829
05241,EstacióndetrenLosCabos,43.5124440,-6.0975140
05243,EstacióndetrenMurosDeNalón,43.542957,-6.111114
05244,EstacióndetrenElPito-PiÑera,43.546893,-6.143335
05245,EstacióndetrenCudillero,43.550925,-6.151968
05300,EstacióndetrenElVallobín,43.3653000,-5.8649000
05301,EstacióndetrenL\'argaÑosa-Llapiés,43.365832,-5.870018
05302,EstacióndetrenAsCampas,43.3638300,-5.8834600
05303,EstacióndetrenLesMaces,43.3586700,-5.8975600
05304,EstacióndetrenSanClaudio/SanCloyo,43.355333,-5.917811
05306,EstacióndetrenSanPedruNora,43.3687400,-5.9588000
05308,EstacióndetrenSotu-Udrión,43.3557070,-5.9653520
05311,EstacióndetrenTrubia,43.3485300,-5.9676500
05313,EstacióndetrenSantaMaríaGrau,43.3837900,-5.9826300
05315,EstacióndetrenVeigaD\'anzu,43.3893500,-6.0058600
05316,EstacióndetrenPeÑaflor,43.402931,-6.045405
05317,EstacióndetrenGrau/Grado,43.3945300,-6.0637200
05319,EstacióndetrenSandiche,43.425605,-6.05996
05320,EstacióndetrenAces,43.4399280,-6.0657890
05321,EstacióndetrenSanRomán,43.4489560,-6.0772830
05323,EstacióndetrenBeifar,43.4700840,-6.0988770
05325,EstacióndetrenPravia,43.4909700,-6.1106200
05327,EstacióndetrenSanRanón,43.5164940,-6.0820650
05329,EstacióndetrenSanEsteban,43.552084,-6.087238
05361,EstacióndetrenBaíÑa,43.274515,-5.828206
05369,EstacióndetrenMieresDelCamín-ElVasco,43.2502800,-5.7799900
05371,EstacióndetrenSantuyano-Caudalia,43.22628,-5.783320
05373,EstacióndetrenFigareo,43.2139570,-5.7839830
05375,EstacióndetrenUxo-Taruelo,43.2006000,-5.7876500
05376,EstacióndetrenSantaCruz,43.1959450,-5.7775460
05377,EstacióndetrenCaborana,43.1760210,-5.7547090
05379,EstacióndetrenMorea/Moreda,43.1707800,-5.7418920
05380,EstacióndetrenSanAntonio,43.1688900,-5.6967710
05381,EstacióndetrenL\'oyanco,43.1665400,-5.7217800
05382,EstacióndetrenCorigos,43.1642800,-5.6766600
05383,EstacióndetrenPiÑeres,43.1659700,-5.6842500
05384,EstacióndetrenSantana-Soto,43.16478,-5.646112
05385,EstacióndetrenCabaÑaquinta/Cabanaquinta,43.1608300,-5.6249100
05387,EstacióndetrenL.levinco,43.151098,-5.600266
05389,EstacióndetrenCol.lanzo,43.124043,-5.566384
05403,EstacióndetrenTremaÑes-Llangréu/Langreo,43.528766,-5.694847
05405,EstacióndetrenSotiello,43.507289,-5.726564
05407,EstacióndetrenPinzales,43.4865850,-5.7196960
05409,EstacióndetrenAguda,43.46603,-5.72606
05410,EstacióndetrenXixún,43.370778,-5.69338
05411,EstacióndetrenLaFlorida,43.4345900,-5.7100000
05412,EstacióndetrenPuenteBuracos,43.4481100,-5.7173900
05413,EstacióndetrenNoreÑa,43.3939800,-5.7037100
05415,EstacióndetrenBendición,43.3633710,-5.6803400
05416,EstacióndetrenValdesoto,43.3584160,-5.6585900
05417,EstacióndetrenCarbayín,43.3511680,-5.6347560
05420,EstacióndetrenCuruxona,43.339403,-5.63081
05421,EstacióndetrenTiuya/Tuilla,43.328069,-5.643052
05425,EstacióndetrenLaFelguera-Vega,43.3105200,-5.6859000
05429,EstacióndetrenSama-LosLlerones,43.298761,-5.683358
05431,EstacióndetrenCiaÑu,43.290721,-5.667903
05432,EstacióndetrenSanVicente,43.28911,-5.65285
05433,EstacióndetrenL\'entregu-LaEscura,43.289509,-5.640809
05435,EstacióndetrenCarrocera,43.28774,-5.62637
05436,EstacióndetrenSamartín,43.278378,-5.615305
05437,EstacióndetrenSotrondio,43.2757800,-5.6048100
05439,EstacióndetrenBlimea,43.2708200,-5.5903000
05441,EstacióndetrenLosBarreros/Barredos,43.2598700,-5.5750400
05443,EstacióndetrenLaPolaDeLlaviana/PolaDeLaviana,43.2506800,-5.5644900
05451,EstacióndetrenBilbaoLaConcordia,43.259998,-2.926286
05455,EstacióndetrenBasurtoHospital,43.259754,-2.953828
05457,EstacióndetrenFeve-ZorrozaZorrozgoiti,43.273951,-2.974167
05459,EstacióndetrenSantaAgueda,43.261854,-2.973004
05460,EstacióndetrenKastrexana,43.255361,-2.972073
05461,EstacióndetrenIrauregui,43.248317,-2.990089
05463,EstacióndetrenZaramillo,43.2332250,-3.0160370
05465,EstacióndetrenLaQuadra,43.222712,-3.024874
05467,EstacióndetrenSodupe,43.202057,-3.050494
05469,EstacióndetrenArtxube,43.201091,-3.071677
05470,EstacióndetrenLambarri,43.205985,-3.08262
05471,EstacióndetrenGüeÑes,43.20908,-3.095381
05473,EstacióndetrenAranguren,43.210494,-3.109354
05474,EstacióndetrenAranguren/Apdro.,43.210347,-3.114075
05475,EstacióndetrenZalla,43.212797,-3.133284
05477,EstacióndetrenColegio,43.2108840,-3.1387030
05479,EstacióndetrenIbarra,43.2039570,-3.1448310
05481,EstacióndetrenLaHerrera,43.203182,-3.170446
05483,EstacióndetrenBalmaseda,43.196388,-3.189924
05485,EstacióndetrenLaCalzada,43.190121,-3.197160
05501,EstacióndetrenOviedoRam,43.366841,-5.854263
05504,EstacióndetrenParquePrincipado,43.3868100,-5.8088900
05505,EstacióndetrenColloto/Cualloto,43.3794400,-5.7922500
05507,EstacióndetrenMeres,43.3807153,-5.7488323
05508,EstacióndetrenFonciello,43.3817019,-5.7296665
05509,EstacióndetrenElBerrón,43.3825250,-5.7026550
05511,EstacióndetrenLaCarrera,43.386909,-5.675275
05513,EstacióndetrenLaPolaSiero,43.388113,-5.664779
05515,EstacióndetrenLosCorros,43.376828,-5.601385
05517,EstacióndetrenLieres,43.38058,-5.582573
05519,EstacióndetrenRianes,43.3789387,-5.5628276
05521,EstacióndetrenElRemediu,43.375076,-5.546238
05522,EstacióndetrenLlames,43.3687800,-5.5256600
05523,EstacióndetrenNava,43.3611700,-5.5092900
05525,EstacióndetrenFuentesanta/Huentesanta,43.3554700,-5.4782400
05527,EstacióndetrenCeceda/Cecea,43.3561800,-5.4511700
05529,EstacióndetrenCarancos,43.355586,-5.434425
05531,EstacióndetrenPintueles,43.3614480,-5.3874960
05533,EstacióndetrenL\'infiestu,43.351777,-5.36921
05534,EstacióndetrenL\'infiestuApd,43.3438950,-5.3572830
05601,EstacióndetrenSantanderRam,43.4583294,-3.8120706
05602,EstacióndetrenValdecillaLaMarga,43.452804,-3.828602
05603,EstacióndetrenCazoÑa,43.455249,-3.841491
05604,EstacióndetrenAdarzo,43.453465,-3.85579
05605,EstacióndetrenBezana,43.4409900,-3.8996100
05607,EstacióndetrenMortera,43.435207,-3.918223
05609,EstacióndetrenBooDePiélago,43.4316340,-3.9464320
05611,EstacióndetrenMogro,43.4250400,-3.9607600
05613,EstacióndetrenGornazo,43.409638,-3.988686
05615,EstacióndetrenMar,43.398343,-4.010047
05617,EstacióndetrenRequejada,43.3913700,-4.0279800
05619,EstacióndetrenBarreda,43.37424,-4.04187
05620,EstacióndetrenAltamira,43.3536040,-4.0606090
05621,EstacióndetrenTorrelavega/Centro,43.35093,-4.051009
05622,EstacióndetrenGanzo,43.356546,-4.070291
05623,EstacióndetrenPuenteSanMiguel,43.3586380,-4.0877570
05625,EstacióndetrenSantaIsabelDeQuijas,43.3589770,-4.1118650
05627,EstacióndetrenSanPedroDeRudagüera,43.361127,-4.149519
05629,EstacióndetrenGolbardo,43.3408710,-4.1555960
05631,EstacióndetrenCasarDePeriedo,43.3387700,-4.1747300
05633,EstacióndetrenVirgenDeLaPeÑa,43.323142,-4.193685
05635,EstacióndetrenOntoria,43.3152500,-4.2155400
05637,EstacióndetrenCabezónDeLaSal,43.3077700,-4.2319600
05651,EstacióndetrenNuevaMontaÑa,43.440103,-3.849398
05652,EstacióndetrenValleReal,43.427513,-3.840498
05655,EstacióndetrenMaliaÑoLaVidriera,43.416083,-3.841081
05657,EstacióndetrenAstillero,43.4037100,-3.8212500
05658,EstacióndetrenLaCantábrica,43.397296,-3.814914
05659,EstacióndetrenSanSalvador,43.393758,-3.803777
05661,EstacióndetrenHeras,43.401139,-3.766305
05663,EstacióndetrenOrejo,43.399487,-3.737923
05665,EstacióndetrenSolares,43.3874800,-3.7313100
05667,EstacióndetrenCeceÑas,43.376441,-3.717872
05669,EstacióndetrenLaCavada,43.350589,-3.706766
05671,EstacióndetrenLiérganes,43.3448200,-3.7421200
05721,EstacióndetrenArla-Berrón,43.1666990,-3.2275890
05722,EstacióndetrenUngoNava,43.1428940,-3.2647160
05724,EstacióndetrenMercadillo-Villasana,43.1052090,-3.2644690
05727,EstacióndetrenCadagua,43.0681710,-3.3473390
05730,EstacióndetrenBercedoMontija,43.0884790,-3.4560000
05731,EstacióndetrenQuintanaDeLosPrados,43.0800000,-3.5100000
05732,EstacióndetrenEspinosaDeLosMonteros,43.0742520,-3.5371160
05733,EstacióndetrenRedondo,43.0629930,-3.6078950
05734,EstacióndetrenSotoscueva,43.0452920,-3.6882530
05735,EstacióndetrenPedrosa,43.0123670,-3.7378520
05736,EstacióndetrenDosanteCidad,43.0012500,-3.7452500
05737,EstacióndetrenRobredoAhedo,43.0190940,-3.8092310
05738,EstacióndetrenSoncillo,43.005809,-3.844888
05739,EstacióndetrenCabaÑasDeVirtus,42.996397,-3.858466
05740,EstacióndetrenArija,42.9912920,-3.9450060
05741,EstacióndetrenLlano,42.9880620,-3.9823570
05742,EstacióndetrenFeve-LasRozasDeValdearroyo,42.9736050,-4.0298640
05743,EstacióndetrenMontesClaros,42.9343230,-4.0500730
05744,EstacióndetrenLosCarabeos,42.9103290,-4.0752110
05747,EstacióndetrenCillamayor,42.8577520,-4.2791780
05748,EstacióndetrenSalinasDePisuerga,42.8512710,-4.3862090
05749,EstacióndetrenVadoCervera,42.8393600,-4.4947700
05750,EstacióndetrenCastrejónDeLaPeÑa,42.8119900,-4.6016200
05751,EstacióndetrenVillaverdeTarilonte,42.8183530,-4.6854190
05752,EstacióndetrenSantibaÑezDeLaPeÑa,42.8020400,-4.7414500
05753,EstacióndetrenGuardo/Apdro.,42.7877600,-4.8451920
05754,EstacióndetrenGuardo,42.7910800,-4.8520100
05755,EstacióndetrenLaLlamaDeLaGuzpeÑa,42.7702740,-5.0412990
05756,EstacióndetrenLaEspina,42.787317,-4.905185
05757,EstacióndetrenValcuende,42.7656200,-4.9292100
05758,EstacióndetrenPuenteAlmuhey,42.78764,-4.971911
05759,EstacióndetrenPradoDeLaGuzpeÑa,42.7838799,-5.0264800
05760,EstacióndetrenValleDeLasCasas,42.7677800,-5.0711100
05761,EstacióndetrenCistierna,42.8031400,-5.1307600
05762,EstacióndetrenYugueros,42.809817,-5.180063
05763,EstacióndetrenLaErcina,42.8086800,-5.2140870
05764,EstacióndetrenBarrillos,42.812364,-5.283128
05765,EstacióndetrenFeve-LaLosilla,42.838561,-5.318151
05766,EstacióndetrenBoÑar,42.862759,-5.328534
05767,EstacióndetrenLaVecilla,42.855095,-5.412162
05768,EstacióndetrenAviados,42.854774,-5.442816
05769,EstacióndetrenLaValcueva,42.84966,-5.486957
05770,EstacióndetrenMatallana,42.841068,-5.522135
05771,EstacióndetrenPardavé,42.806349,-5.508186
05772,EstacióndetrenPedrún,42.791013,-5.506954
05773,EstacióndetrenManzaneda,42.754603,-5.51641
05774,EstacióndetrenGarrafe,42.734502,-5.52421
05775,EstacióndetrenPalazuelo,42.707132,-5.533764
05776,EstacióndetrenSanFeliz,42.682301,-5.537782
05777,EstacióndetrenVillaquilambre,42.6469340,-5.5540460
05785,EstacióndetrenVillasinta,42.657554,-5.549298
05786,EstacióndetrenMatueca,42.771532,-5.51194
05787,EstacióndetrenNaredo,42.833441,-5.523002
05788,EstacióndetrenRobles,42.840743,-5.507292
05789,EstacióndetrenCampohermoso,42.855941,-5.42872
05790,EstacióndetrenSorriba,42.786278,-5.127479
05793,EstacióndetrenLaMataDeLaRiba,42.858578,-5.339645
05794,EstacióndetrenLaRaya,42.629108,-5.561383
05795,EstacióndetrenFeve-Otero,42.859568,-5.389983
05796,EstacióndetrenVillaRomana,42.629111,-5.561338
05797,EstacióndetrenValdepiélago,42.8650500,-5.4032170
05798,EstacióndetrenLaDevesa,42.820148,-5.302187
05799,EstacióndetrenCerezalDeLaGuzpeÑa,42.7798340,-5.0058510
05803,EstacióndetrenLaAsunción/Universidad,42.615821,-5.566379
05805,EstacióndetrenBarrioDeLasOllas,42.858586,-5.339549
05807,EstacióndetrenValderilla,42.717641,-5.530277
05951,EstacióndetrenFeve-CartagenaPlazaBastarreche,37.603575,-0.977029
05952,EstacióndetrenHospital,37.60529,-0.960681
05953,EstacióndetrenMediaLegua,37.607888,-0.953643
05955,EstacióndetrenVistaAlegre,37.609294,-0.944179
05957,EstacióndetrenElAbrevadero,37.609727,-0.931259
05959,EstacióndetrenAlumbres,37.609929,-0.914841
05961,EstacióndetrenLaEsperanza,37.613793,-0.891342
05963,EstacióndetrenLaUniónVieja,37.615466,-0.881629
05965,EstacióndetrenLaUnión,37.615673,-0.875217
05967,EstacióndetrenSierraMinera,37.61985,-0.864864
05969,EstacióndetrenLlanoDelBeal,37.626055,-0.83621
05971,EstacióndetrenElEstrecho,37.627603,-0.829591
05973,EstacióndetrenLosNietosViejos,37.646924,-0.791485
05975,EstacióndetrenLosNietosPescadería,37.649354,-0.787864
05977,EstacióndetrenLosNietos,37.651839,-0.796983
06001,EstacióndetrenLibrilla(apd),37.8865569,-1.3471673
06002,EstacióndetrenAlhamaDeMurcia,37.8493837,-1.4145055
06003,EstacióndetrenTotana,37.7635101,-1.4956127
06004,EstacióndetrenLaHoya(apd),37.7037338,-1.5954024
06005,EstacióndetrenLorca-SanDiego(apd),37.6805717,-1.6858944
06006,EstacióndetrenLorcaSutullena,37.6725714,-1.6959002
06007,EstacióndetrenPuertoLumbreras(apt),37.5809194,-1.731775
06008,EstacióndetrenAlcantarillaLosRomanos,37.9642527,-1.2170108
06100,EstacióndetrenAlmendricos,37.4748912,-1.7796447
07001,EstacióndetrenPulpi(apd),37.3999194,-1.7501361
07003,EstacióndetrenJaravia(apd),37.3925027,-1.693175
07004,Estacióndetrenáguilas,37.4098333,-1.5725777
07007,EstacióndetrenAguilas-Lb,37.4119055,-1.5859138
10000,EstacióndetrenMadrid-PrincipePio,40.4215361,-3.7190805
10001,EstacióndetrenAravaca(apd-Cgd),40.4484027,-3.7855512
10002,EstacióndetrenPozuelo,40.4473443,-3.8002865
10005,EstacióndetrenLasRozas(apd),40.4942255,-3.8681086
10007,EstacióndetrenMajadahond,40.4742448,-3.8452712
10010,EstacióndetrenElBarrial,40.4653336,-3.8078526
10100,EstacióndetrenPinarDeLasRozas,40.5222566,-3.8822585
10101,EstacióndetrenLasMatas,40.5523275,-3.8967651
10103,EstacióndetrenTorrelodones,40.5745499,-3.9565955
10104,EstacióndetrenGalapagar-LaNavata,40.6002664,-3.9822646
10200,EstacióndetrenVillalbaDeGuadarrama,40.6265067,-4.0081871
10201,EstacióndetrenSanYago,40.6178786,-4.0312349
10202,EstacióndetrenLasZorreras-Navalquejigo,40.6092725,-4.0463634
10203,EstacióndetrenElEscorial,40.5852811,-4.1324479
10204,EstacióndetrenZarzalejo,40.538710,-4.158180
10205,EstacióndetrenRobledoDeChavela,40.520802,-4.246774
10206,EstacióndetrenSantaMaríaDeLaAlameda-Peguerinos,40.568937,-4.269332
11305,EstacióndetrenBrinkola-OÑati,43.019887,-2.334469
11306,EstacióndetrenLegazpi,43.052263,-2.329396
11400,EstacióndetrenZumarraga,43.088273,-2.318462
11402,EstacióndetrenOrmaiztegui,43.040151,-2.255831
11404,EstacióndetrenBeasain,43.046174,-2.203234
11405,EstacióndetrenOrdizia/Ordicia,43.052583,-2.181019
11406,EstacióndetrenItsasondo(apd),43.068955,-2.162736
11407,EstacióndetrenLegorreta,43.085187,-2.14555
11408,EstacióndetrenIkazteguieta(apd),43.094977,-2.126252
11409,EstacióndetrenAlegia,43.10214,-2.099346
11500,EstacióndetrenTolosa,43.131936,-2.085247
11501,EstacióndetrenTolosaCentro,43.13597,-2.078512
11502,EstacióndetrenAnoeta,43.165233,-2.071624
11503,EstacióndetrenVillabona-Zizurkil,43.189391,-2.055641
11504,EstacióndetrenAndoain-Centro,43.214729,-2.020394
11505,EstacióndetrenAndoain,43.221715,-2.016357
11506,EstacióndetrenUrnieta,43.243416,-1.991492
11507,EstacióndetrenHernani-Centro,43.261977,-1.975726
11508,EstacióndetrenHernani,43.272283,-1.964175
11509,EstacióndetrenMartutene,43.29442,-1.956981
11510,EstacióndetrenLoiola,43.304772,-1.964289
11511,EstacióndetrenSanSebastián/Donostia,43.317669,-1.976704
11512,EstacióndetrenGros,43.322077,-1.972632
11513,EstacióndetrenAtegorrieta(apd),43.321814,-1.967016
11514,EstacióndetrenHerrera(apd),43.320009,-1.917946
11515,EstacióndetrenPasaia,43.318764,-1.904324
11516,EstacióndetrenLezo-Errenteria,43.313544,-1.895015
11518,EstacióndetrenVentasDeIrun,43.331008,-1.816203
11522,EstacióndetrenIntxaurrondo,43.32068,-1.952632
11600,EstacióndetrenIrun,43.339582,-1.800192
12001,EstacióndetrenLosNegrales,40.6385681,-4.0220307
12002,EstacióndetrenAlpedrete-Mataespesa,40.6580931,-4.0350813
12004,EstacióndetrenColladoMediano,40.6927600,-4.0359164
12005,EstacióndetrenLosMolinos-Guadarrama,40.7066368,-4.0673999
12006,EstacióndetrenCercedilla,40.7375282,-4.0664502
12020,EstacióndetrenPuertoNavacerrada(apt),40.7842464,-4.0050168
12023,EstacióndetrenLosCotos(apt),40.8223493,-3.9644101
13100,EstacióndetrenOrduÑa,42.994971,-3.014669
13101,EstacióndetrenAmurrio,43.042794,-3.004019
13102,EstacióndetrenSalbio,43.064293,-2.995857
13103,EstacióndetrenLuiaondo,43.093554,-2.999662
13104,EstacióndetrenSantaCruzDeLlodio,43.132448,-2.970197
13106,EstacióndetrenLlodio,43.142721,-2.959916
13107,EstacióndetrenAreta,43.146085,-2.945719
13108,EstacióndetrenArbide,43.159117,-2.929893
13109,EstacióndetrenArrankudiaga(apd),43.1689773,-2.9190924
13110,EstacióndetrenUgao-Miraballes,43.180117,-2.903493
13111,EstacióndetrenArrigorriaga,43.2123426,-2.8906975
13112,EstacióndetrenBasauri(apd),43.226952,-2.888881
13113,EstacióndetrenBidebieta-Basauri,43.238817,-2.892993
13114,EstacióndetrenOllargan,43.244697,-2.912016
13115,EstacióndetrenBakiola,43.176332,-2.909743
13116,EstacióndetrenIÑarratxu,43.017154,-3.011418
13117,EstacióndetrenArakaldo,43.154817,-2.938893
13118,EstacióndetrenAbaroa-Sm,43.236846,-2.889762
13119,EstacióndetrenLaPeÑa,43.239764,-2.923413
13120,EstacióndetrenMiribilla,43.25325,-2.9294
13121,EstacióndetrenAmurrioIparralde,43.0513,-2.99965
13200,EstacióndetrenBilbao-AbandoIndalecioPrieto,43.259609,-2.92915
13205,EstacióndetrenZabalburu,43.256752,-2.932127
13206,EstacióndetrenAmetzola,43.255428,-2.940762
13207,EstacióndetrenAutonomia,43.257784,-2.94615
13208,EstacióndetrenS.Mames,43.261825,-2.948816
13303,EstacióndetrenOlabeaga,43.264166,-2.957191
13304,EstacióndetrenZorrotza,43.277780,-2.972117
13305,EstacióndetrenLutxana-Barakaldo,43.288106,-2.975335
13400,EstacióndetrenDesertu-Barakaldo,43.300475,-2.984948
13401,EstacióndetrenSestao,43.310243,-2.997303
13402,EstacióndetrenLaIberia(apd),43.311861,-3.00425
13403,EstacióndetrenPortugalete,43.318728,-3.015567
13404,EstacióndetrenPeÑota,43.329766,-3.031149
13405,EstacióndetrenSanturtzi,43.335671,-3.041196
13501,EstacióndetrenGalindo,43.300847,-3.021017
13502,EstacióndetrenTrapaga,43.30335,-3.0351
13503,EstacióndetrenValleDeTrapaga/Trapagaran,43.307763,-3.039786
13504,EstacióndetrenOrtuella,43.310251,-3.058531
13505,EstacióndetrenPutxeta,43.31623,-3.089951
13506,EstacióndetrenMuskiz,43.321472,-3.112317
13507,EstacióndetrenUrioste,43.306411,-3.046882
13508,EstacióndetrenGallarta(apd),43.320472,-3.073542
13509,EstacióndetrenSagradaF.,43.308212,-3.052896
14200,EstacióndetrenMataporquera,42.8709010,-4.1654060
14202,EstacióndetrenReinosa,42.995158,-4.139917
14203,EstacióndetrenLantueno-Santiurde,43.064618,-4.086294
14204,EstacióndetrenPesquera,43.083718,-4.079594
14206,EstacióndetrenBárcena,43.130561,-4.056662
14207,EstacióndetrenMolledo-Portolín,43.146897,-4.043563
14208,EstacióndetrenSantaCruzDeIguÑa,43.167067,-4.048194
14209,EstacióndetrenLasFraguas,43.194318,-4.057394
14210,EstacióndetrenLosCorralesDeBuelna,43.257961,-4.064679
14211,EstacióndetrenLasCaldasDeBesaya,43.295518,-4.075294
14212,EstacióndetrenViernoles,43.327437,-4.042475
14213,EstacióndetrenTorrelavega/Tanos,43.33974,-4.02896
14214,EstacióndetrenSierrapando,43.347118,-3.991694
14215,EstacióndetrenZurita,43.357826,-3.979697
14216,EstacióndetrenRenedo,43.355636,-3.953732
14217,EstacióndetrenParbayón,43.375214,-3.90092
14218,EstacióndetrenGuarnizo,43.398271,-3.850226
14219,EstacióndetrenBoo,43.404295,-3.8432
14220,EstacióndetrenMaliaÑo,43.41664,-3.841901
14221,EstacióndetrenMuriedas,43.4265260,-3.8482400
14223,EstacióndetrenSantander,43.458575,-3.811223
14230,EstacióndetrenValdecilla,43.450492,-3.838889
14231,EstacióndetrenNuevaMontaÑa,43.445244,-3.846303
14232,EstacióndetrenLombera,43.276219,-4.071153
14233,EstacióndetrenRíoEbro,43.025658,-4.097112
14234,EstacióndetrenPujayo,43.123726,-4.08172
14235,EstacióndetrenArenasDeIguÑa,43.186618,-4.054394
14236,EstacióndetrenVioÑo,43.360717,-3.964874
14237,EstacióndetrenMuriedas-Bahía,43.435311,-3.850821
15118,EstacióndetrenFierros,43.07152,-5.769496
15119,EstacióndetrenLaFrecha,43.09722,-5.797896
15120,EstacióndetrenCampumanes,43.11112,-5.814196
15121,EstacióndetrenLaCobertoria,43.130231,-5.812825
15122,EstacióndetrenLaPola,43.158942,-5.831075
15123,EstacióndetrenVil.layana,43.186778,-5.803633
15200,EstacióndetrenUxo,43.20702,-5.791496
15202,EstacióndetrenSantuyano,43.214944,-5.785817
15203,EstacióndetrenMieresDelCamín,43.250027,-5.78028
15205,EstacióndetrenAblaÑa,43.267493,-5.804693
15206,EstacióndetrenLaPerea,43.277234,-5.812279
15207,EstacióndetrenOlloniego/Lluniego,43.29622,-5.819295
15208,EstacióndetrenSotoRei/SotoDeRey,43.30762,-5.856895
15209,EstacióndetrenLesSegaes/LasSegadasDeAbajo,43.312842,-5.86918
15210,EstacióndetrenElCaleyu,43.33042,-5.868395
15211,EstacióndetrenOviedo/Uviéu,43.366841,-5.854263
15212,EstacióndetrenLugones/Llugones,43.40347,-5.812935
15217,EstacióndetrenLaCorredoria,43.383422,-5.830233
15218,EstacióndetrenLlamaquique,43.355864,-5.855475
15300,EstacióndetrenLugoDeLlanera,43.445519,-5.817438
15301,EstacióndetrenVillabona,43.46082,-5.825595
15302,EstacióndetrenSerín,43.50482,-5.780395
15303,EstacióndetrenMontiana,43.527578,-5.735516
15305,EstacióndetrenTabladiello,43.474597,-5.802526
15400,EstacióndetrenVeriÑa,43.54092,-5.725018
15401,EstacióndetrenLaCalzada,43.534132,-5.70981
15410,EstacióndetrenGijón/Xixón,43.535175,-5.698318
16001,EstacióndetrenSantolaya,43.31742,-5.812495
16002,EstacióndetrenVeguín,43.33152,-5.772595
16005,EstacióndetrenPeÑarrubia,43.32212,-5.722295
16006,EstacióndetrenBarros,43.3178079,-5.7109228
16008,EstacióndetrenLaFelguera,43.304594,-5.692439
16009,EstacióndetrenSama,43.291503,-5.679332
16010,EstacióndetrenCiaÑu,43.289192,-5.66793
16011,EstacióndetrenL\'entregu/ElEntrego,43.2872372,-5.6479229
16301,EstacióndetrenFerroÑes,43.475556,-5.861372
16302,EstacióndetrenCancienes,43.51582,-5.869095
16400,EstacióndetrenNubledo/Nubleo,43.52212,-5.869295
16401,EstacióndetrenVillalegre,43.536871,-5.896108
16402,EstacióndetrenLaRocica,43.5467,-5.9052
16403,EstacióndetrenAvilés,43.561191,-5.922576
16405,EstacióndetrenSanXuan,43.58952,-5.932595
16408,EstacióndetrenLosCampos,43.536675,-5.885115
17000,EstacióndetrenMadrid-Chamartín-ClaraCampoamor,40.4720993,-3.6824687
17001,EstacióndetrenFuencarral(apt),40.5015242,-3.6824808
17003,EstacióndetrenElGoloso(apd),40.5587539,-3.7139504
17004,EstacióndetrenTresCantos(apt),40.5985252,-3.7155822
17005,EstacióndetrenColmenarViejo,40.6451853,-3.7765198
17009,EstacióndetrenUniversidadCantoBlanco,40.5438226,-3.7001834
18000,EstacióndetrenMadrid-AtochaCercanías,40.4061556,-3.6889579
18001,EstacióndetrenMadrid-Recoletos,40.4234123,-3.6908535
18002,EstacióndetrenMadrid-NuevosMinisterios,40.4466171,-3.6923408
18003,EstacióndetrenM.alvaro-P,40.3956167,-3.6777094
18004,EstacióndetrenDelicias,40.4003715,-3.692763
18005,EstacióndetrenPirámides,40.4025917,-3.7113344
18101,EstacióndetrenMadrid-Sol,40.4168778,-3.7032107
19001,EstacióndetrenU.p.comill,40.554058,-3.683335
19002,EstacióndetrenValdelasfu,40.5474433,-3.6543338
19003,EstacióndetrenAlcob.sseb,40.546566,-3.6351819
21010,EstacióndetrenFerrol,43.4880349,-8.2311430
35001,EstacióndetrenLeganés,40.3286349,-3.7711552
35002,EstacióndetrenFuenlabrada,40.2833747,-3.7994538
35009,EstacióndetrenZarzaquemada,40.3406009,-3.7482111
35010,EstacióndetrenLaSerna,40.2967500,-3.7926450
35011,EstacióndetrenP.polvoran,40.3125398,-3.7835135
35012,EstacióndetrenHumanes,40.2556903,-3.8286016
35600,EstacióndetrenMadrid-Aluche,40.3856315,-3.7607442
35601,EstacióndetrenMaestraJustaFreirePolideportivoAluch,40.3836517,-3.7685682
35602,EstacióndetrenLasAguilas,40.3811836,-3.7802739
35603,EstacióndetrenCuatroVientos,40.3777633,-3.7914876
35604,EstacióndetrenSanJoseDeValderas,40.3565467,-3.8155715
35605,EstacióndetrenAlcorcon,40.3502521,-3.8320940
35606,EstacióndetrenMostoles,40.3284890,-3.8638111
35607,EstacióndetrenMostolesElSoto,40.330971,-3.882441
35608,EstacióndetrenLaguna,40.3991775,-3.7442226
35609,EstacióndetrenEmbajador.,40.4051246,-3.7026286
35610,EstacióndetrenL.Retamas,40.3420458,-3.8424115
35701,EstacióndetrenMendezAlvaro,40.3957270,-3.6778070
35702,EstacióndetrenDoceOctub,40.3790374,-3.6988513
35703,EstacióndetrenOrcasitas,40.3666963,-3.7046002
35704,EstacióndetrenPuenteAlcocer,40.3504002,-3.7051062
37001,EstacióndetrenMadrid-VillaverdeAlto,40.3415512,-3.7115464
37002,EstacióndetrenGetafeCentro,40.3098934,-3.7340237
37010,EstacióndetrenMargaritas,40.3229367,-3.7272747
37011,EstacióndetrenGetafeS-3,40.2882215,-3.7375106
37012,EstacióndetrenParla,40.2411556,-3.7692726
40113,EstacióndetrenCazalla-Constantina,37.9327717,-5.7044058
40114,EstacióndetrenFabricaDelPedroso,37.8624888,-5.7403111
40115,EstacióndetrenPedroso,37.8373261,-5.7624477
40118,EstacióndetrenArenillas(apt-Cgd),37.7009472,-5.7502583
40119,EstacióndetrenVillanuevaDelRío-Minas,37.6616071,-5.7121550
40121,EstacióndetrenAlcoleaDelRío,37.6354388,-5.7308277
40122,EstacióndetrenTocina,37.6092611,-5.7316916
43000,EstacióndetrenSanJeronimo,37.434667,-5.982378
43002,EstacióndetrenCamas,37.4017138,-6.0371611
43003,EstacióndetrenVillanuevaAriscalYOliv.(apt),37.4070916,-6.1482194
43004,EstacióndetrenSanlucarLaMayor(apd-Cgd),37.3814027,-6.1939333
43005,EstacióndetrenBenacazón,37.3567611,-6.2082805
43026,EstacióndetrenValencina-Santiponce,37.42963,-6.065401
43027,EstacióndetrenSalteras,37.4106611,-6.0988333
50600,EstacióndetrenLoraDelRío,37.6613027,-5.5295472
50602,EstacióndetrenGuadajoz,37.5813944,-5.6699222
50700,EstacióndetrenLosRosales,37.5898444,-5.7261638
50701,EstacióndetrenCantillana,37.5742444,-5.8031861
50702,EstacióndetrenBrenes,37.5462666,-5.8667722
50703,EstacióndetrenLaRinconada,37.4800777,-5.9401246
50704,EstacióndetrenElCaÑamo,37.488,-5.9312
51003,EstacióndetrenSevilla-SantaJusta,37.3921277,-5.9752694
51009,EstacióndetrenP.congreso,37.4037820,-5.9362556
51010,EstacióndetrenP.pioPalm,37.3708446,-5.9394732
51050,EstacióndetrenCartuja,37.4078985,-6.0098499
51051,EstacióndetrenEst.olimp,37.4172225,-6.0074834
51100,EstacióndetrenSevilla-SanBernardo,37.3775194,-5.9796
51103,EstacióndetrenDosHermanas,37.2872,-5.9235192
51104,EstacióndetrenDonRodrigo(apt),37.2330760,-5.8467420
51110,EstacióndetrenSevilla-VirgenDelRocío,37.3628,-5.9760111
51111,EstacióndetrenBellavista,37.3214916,-5.9641861
51112,EstacióndetrenCantaelgallo,37.2781444,-5.9104055
51113,EstacióndetrenJardinesDeHércules,37.33273,-5.964503
51200,EstacióndetrenUtrera,37.1845444,-5.7907966
51202,EstacióndetrenLasCabezasDeSanJuan,37.0193453,-5.9465554
51203,EstacióndetrenLebrija,36.9299735,-6.0864165
51205,EstacióndetrenJerezAeropuerto,36.751147,-6.066664
51300,EstacióndetrenJerezDeLaFrontera,36.6800290,-6.1264716
51400,EstacióndetrenPuertoDeSantaMaría,36.6037962,-6.2171641
51401,EstacióndetrenPuertoReal,36.5309277,-6.1861944
51402,EstacióndetrenSanFernandoCentro,36.4757694,-6.1940833
51404,EstacióndetrenSegundaAguada,36.5134777,-6.2770083
51405,EstacióndetrenCádiz,36.5290083,-6.2882055
51406,EstacióndetrenSanFernando-BahíaSur,36.4680361,-6.2067638
51407,EstacióndetrenCadiz-Cortadura,36.4943222,-6.2682444
51409,EstacióndetrenCádiz-Estadio,36.5028972,-6.2720638
51414,EstacióndetrenSanSeveriano,36.5215444,-6.28075
51415,EstacióndetrenLasAletas,36.5446083,-6.199
51416,EstacióndetrenUniversidad,36.5300472,-6.2050222
51417,EstacióndetrenValdelagrana,36.5848055,-6.2160444
51419,EstacióndetrenRíoArillo,36.457463,-6.224761
51450,EstacióndetrenPelagatos,36.408705,-6.134312
51451,EstacióndetrenLaHoya,36.411233,-6.139086
51452,EstacióndetrenReyesCatólicos,36.414380,-6.143180
51453,EstacióndetrenNuestraSeÑoraDeLosRemedios,36.420382,-6.144749
51454,EstacióndetrenAlamedaSolano,36.425359,-6.144507
51455,EstacióndetrenMarquesado,36.428621,-6.143365
51456,EstacióndetrenPinarDeLosFranceses,36.440507,-6.144541
51457,EstacióndetrenTresCaminos,36.466538,-6.175692
51458,EstacióndetrenVentaDeVargas,36.467726,-6.191055
51459,EstacióndetrenPlazaDeLaIglesia,36.466150,-6.195786
51460,EstacióndetrenPlazaDelRey,36.463931,-6.198344
51461,EstacióndetrenCompaÑíaDeMaría,36.460383,-6.201073
51462,EstacióndetrenPlazaDelCarmen,36.458082,-6.203625
51463,EstacióndetrenSantoEntierro,36.455906,-6.209612
51464,EstacióndetrenLaArdila,36.456230,-6.216026
54405,Estacióndetrenálora,36.819825,-4.6994424
54406,EstacióndetrenPizarra,36.7640611,-4.7116694
54407,EstacióndetrenAljaima,36.7331166,-4.6644194
54408,EstacióndetrenCártama,36.7337555,-4.6082320
54410,EstacióndetrenCampanillas,36.7047333,-4.5456194
54412,EstacióndetrenLosPrados,36.6985157,-4.4781625
54500,EstacióndetrenMalagaM.z.Cercanias,36.7102500,-4.4329010
54501,EstacióndetrenVictoriaKent,36.7011222,-4.4544444
54503,EstacióndetrenGuadalhorce(apd),36.6920138,-4.4838277
54505,EstacióndetrenMálagaAeropuerto,36.6757,-4.48725
54508,EstacióndetrenLaColina(apd),36.6418944,-4.4926472
54509,EstacióndetrenTorremolinos,36.6225361,-4.4995805
54510,EstacióndetrenElPinillo(apd),36.6098194,-4.5153694
54511,EstacióndetrenBenalmádena/ArroyoDeLaMiel,36.5990583,-4.5362333
54512,EstacióndetrenTorremuelle-Benalmadena(apt),36.5822333,-4.5671138
54513,EstacióndetrenCarvajal(apt),36.5701333,-4.593975
54514,EstacióndetrenTorreblanca(apd),36.5649222,-4.6067666
54515,EstacióndetrenLosBoliches(apd),36.5549140,-4.6143560
54516,EstacióndetrenFuengirola,36.5429388,-4.6228027
54517,EstacióndetrenMalagaCentroAlameda,36.7156668,-4.4287461
54518,EstacióndetrenLosAlamos(apd),36.6450055,-4.4851111
54519,EstacióndetrenMontemarA,36.6138388,-4.5091305
54520,EstacióndetrenPlza.mayor,36.6561722,-4.4803138
60100,EstacióndetrenMadrid-VillaverdeBajo,40.3536351,-3.6839896
60101,EstacióndetrenSanCristóbalIndustrial,40.3319352,-3.6986743
60102,EstacióndetrenGetafeIndustrial(alicante),40.3054448,-3.7078159
60103,EstacióndetrenPinto,40.2427782,-3.7036626
60104,EstacióndetrenValdemoro,40.1960018,-3.6649777
60105,EstacióndetrenCiempozuelos,40.1590740,-3.6101107
60107,EstacióndetrenSanCristobalDeLosAngeles,40.3408068,-3.6839943
60109,EstacióndetrenElCasar,40.3186333,-3.7100083
60200,EstacióndetrenAranjuez,40.0348585,-3.6182315
60911,EstacióndetrenAlicante/Alacant,38.34445,-0.4950527
60913,EstacióndetrenSantVicentCentre,38.3972495,-0.5326435
60914,EstacióndetrenUniversidadDeAlicante,38.3847998,-0.5281080
61200,EstacióndetrenMurcia,37.97465,-1.1299555
62001,EstacióndetrenBeniel,38.0447361,-0.9994472
62002,EstacióndetrenOrihuela-MiguelHernández,38.0779194,-0.94445
62003,EstacióndetrenCallosaDeSegura,38.1235694,-0.8732888
62100,EstacióndetrenAlbatera-Catral,38.1670972,-0.8383583
62101,EstacióndetrenCrevillent,38.2245805,-0.7817972
62102,EstacióndetrenElche/ElxCarrús,38.2690055,-0.7063555
62103,EstacióndetrenElcheParque/ElxParc,38.2717784,-0.6952109
62104,EstacióndetrenTorrellano,38.2896027,-0.5825138
62108,EstacióndetrenElx-Mercancias,38.2785340,-0.6536870
62109,EstacióndetrenSantGabriel,38.3287722,-0.5089444
64003,EstacióndetrenMoixent/Mogente,38.8776138,-0.7536722
64004,EstacióndetrenVallada(apt-Cgd),38.9088166,-0.6902666
64005,EstacióndetrenMontesa(apt),38.9428444,-0.6411055
64006,EstacióndetrenAlcudia,38.9690638,-0.5864111
64007,EstacióndetrenL\'ènovaManuel,39.0501935,-0.4778516
64100,EstacióndetrenXàtiva,38.9920972,-0.5244888
64102,EstacióndetrenLaPoblaLlarga,39.083475,-0.4697027
64103,EstacióndetrenCarcaixent,39.1204694,-0.4543833
64104,EstacióndetrenAlzira,39.1531194,-0.4506000
64105,EstacióndetrenAlgemesí,39.1931111,-0.4409083
64107,EstacióndetrenBenifaió-Almussafes,39.2842194,-0.4299500
64200,EstacióndetrenSilla,39.3617388,-0.4149472
64201,EstacióndetrenCatarroja,39.3999611,-0.3991916
64202,EstacióndetrenMassanassa,39.4091638,-0.3953194
64203,EstacióndetrenAlfafar-Benetússer,39.4223277,-0.3926
65000,EstacióndetrenValencia-EstaciòDelNord,39.4669346,-0.3771842
65001,EstacióndetrenRoca-Cúper,39.5261277,-0.3237777
65002,EstacióndetrenValenciaF.s.l-HospitalLaFe,39.4414666,-0.3698944
65003,EstacióndetrenValencia-Cabanyal,39.4689527,-0.3345694
65005,EstacióndetrenAlbuixech,39.5433,-0.3205777
65006,EstacióndetrenMassalfassar-Albuixech,39.5556333,-0.3182861
65007,EstacióndetrenElPuig,39.5882111,-0.3116472
65008,EstacióndetrenPuçol,39.6171903,-0.3048578
65200,EstacióndetrenSagunt/Sagunto,39.6756611,-0.2715972
65201,EstacióndetrenLesValls,39.7192801,-0.2397542
65202,EstacióndetrenAlmenara,39.7487555,-0.2183805
65203,EstacióndetrenLaLlosa,39.7680118,-0.2030695
65204,EstacióndetrenChilches,39.7825944,-0.1903333
65205,EstacióndetrenMoncofa,39.8208638,-0.1626861
65206,EstacióndetrenNules-LaVilavella,39.8531222,-0.1527555
65207,EstacióndetrenBurriana-AlqueríasNiÑoPerdido,39.8964287,-0.1038666
65208,EstacióndetrenVila-Real,39.9330222,-0.0967722
65209,EstacióndetrenAlmassora/Almazora,39.9548444,-0.0767722
65300,EstacióndetrenCastelló,39.9882552,-0.0524126
65304,EstacióndetrenOrpesa/OropesaDelMar,40.0922580,0.13986100
65306,EstacióndetrenTorreblanca,40.2122110,0.19877900
65308,EstacióndetrenAlcalàDeXivert,40.3046900,0.22871700
65311,EstacióndetrenBenicarló-PeÑíscola,40.4276390,0.41521700
65312,EstacióndetrenVinaròs,40.4716820,0.45572700
65314,EstacióndetrenUlldecona-Alcanar-LaSénia,40.5959240,0.44927000
65318,EstacióndetrenBenicàssim,40.0579451,0.05776460
65400,EstacióndetrenTortosa,40.8073390,0.52293700
65401,EstacióndetrenCamp-Redó,40.7591350,0.55583400
65402,EstacióndetrenL\'aldea-Amposta,40.7535420,0.61431400
65403,EstacióndetrenCamarles-Deltebre,40.7747570,0.67164700
65404,EstacióndetrenL\'ampolla-Perelló,40.8120110,0.70822100
65405,EstacióndetrenL\'ametllaDeMar,40.8861880,0.80042700
65407,EstacióndetrenL\'hospitaletDeL\'infant,40.9958630,0.92073300
65409,EstacióndetrenCambrils,41.0816480,1.0460550
65411,EstacióndetrenSalou-PortAventura,41.0870700,1.14548600
65420,EstacióndetrenL\'hospitaletDeL\'infant,40.9958630,0.92073300
65422,EstacióndetrenCambrils,41.0816480,1.0460550
66200,EstacióndetrenUtiel,39.5717140,-1.2036330
66201,EstacióndetrenSanAntonioDeRequena,39.5222444,-1.1503527
66202,EstacióndetrenRequena,39.4912,-1.104675
66203,EstacióndetrenElRebollar,39.4772611,-1.0115972
66204,EstacióndetrenSieteAguas,39.4568638,-0.9030444
66205,EstacióndetrenVentaMina-SieteAguas,39.4542861,-0.8701861
66206,EstacióndetrenBuÑol,39.427175,-0.7868888
66207,EstacióndetrenChiva,39.4710444,-0.7228888
66208,EstacióndetrenCheste,39.4908222,-0.6862916
66209,EstacióndetrenLoriguilla-Reva,39.4857027,-0.5673694
66210,EstacióndetrenCircuitRicardoTormo,39.4955527,-0.6255277
66211,EstacióndetrenAldaia,39.4610444,-0.4632388
66212,EstacióndetrenValenciaSantIsidre,39.4526833,-0.4058694
66214,EstacióndetrenXirivella-Alqueries,39.4625527,-0.4321861
67211,EstacióndetrenCaudiel(apt),39.9473166,-0.5720277
67212,EstacióndetrenJérica-Viver(apt),39.9146309,-0.5689031
67213,EstacióndetrenNavajas(apt),39.8740271,-0.5060235
67214,EstacióndetrenSegorbe-Arrabal,39.85445,-0.4932694
67215,EstacióndetrenSegorbe,39.8469583,-0.4824138
67216,EstacióndetrenAlgimia-C,39.7460638,-0.3673135
67217,EstacióndetrenSoneja,39.81255,-0.4318972
67221,EstacióndetrenEstivella-AlbalatDelsTarongers,39.7063753,-0.3483269
67223,EstacióndetrenGilet(apd),39.6792861,-0.3206055
69101,EstacióndetrenElRomani,39.3029777,-0.3941055
69102,EstacióndetrenSollana(apt),39.2793083,-0.3793138
69103,EstacióndetrenSueca,39.2055611,-0.307825
69104,EstacióndetrenCullera,39.1778305,-0.2632361
69105,EstacióndetrenTavernesDeLaValldigna,39.0790027,-0.2262833
69107,EstacióndetrenXeraco,39.0262694,-0.2146694
69110,EstacióndetrenGandía,38.9702805,-0.1797722
69111,EstacióndetrenPlatja-Gan,38.9913319,-0.1611829
69200,EstacióndetrenXiriv_l´al,39.4636472,-0.4209361
70001,EstacióndetrenVallecas,40.3820447,-3.6246888
70002,EstacióndetrenAsambleaDeMad.Entrevías,40.3816176,-3.6679819
70003,EstacióndetrenElPozo,40.3760524,-3.6562354
70005,EstacióndetrenVallecas,40.3823640,-3.6230420
70100,EstacióndetrenVicálvaro,40.4012112,-3.5959811
70101,EstacióndetrenSanFernandoHenares,40.4425370,-3.5344609
70102,EstacióndetrenTorrejónDeArdoz,40.4547384,-3.4797415
70103,EstacióndetrenAlcalaDeHenares,40.4889113,-3.3662523
70104,EstacióndetrenMeco(apd-Cgd),40.5344356,-3.2990455
70105,EstacióndetrenAzuqueca,40.5610437,-3.2653569
70107,EstacióndetrenAlcaláHenares-Universidad(apd),40.5052933,-3.3352443
70108,EstacióndetrenCoslada(apd),40.4232210,-3.5611137
70109,EstacióndetrenSantaEugenia,40.3869128,-3.6089604
70111,EstacióndetrenLaGarena,40.4804888,-3.3930758
70112,EstacióndetrenSotoDelHenares,40.4638889,-3.4422222
70200,EstacióndetrenGuadalajara,40.6441032,-3.1822298
70800,EstacióndetrenCasetas,41.72265,-1.020175
70801,EstacióndetrenUtebo,41.7105305,-0.9979222
70806,EstacióndetrenZaragozaPortillo,41.6526636,-0.896165
70807,EstacióndetrenZaragozaGoya,41.644103,-0.891188
71100,EstacióndetrenZaragozaMiraflores,41.62977,-0.863064
71102,EstacióndetrenElBurgoDeEbro,41.5665270,-0.7398390
71103,EstacióndetrenFuentesDeEbro,41.5150650,-0.6186250
71104,EstacióndetrenPinaDeEbro,41.4800970,-0.5572770
71105,EstacióndetrenQuinto,41.4195280,-0.4906730
71108,EstacióndetrenLaZaida-Sástago,41.3205420,-0.4271150
71109,EstacióndetrenAzaila,41.2761780,-0.4858230
71200,EstacióndetrenLaPueblaDeHíjar,41.2244000,-0.4385950
71201,EstacióndetrenSamper,41.1821830,-0.3687610
71202,EstacióndetrenEscatrón,41.2126740,-0.2899790
71203,EstacióndetrenChiprana,41.2315810,-0.1544950
71204,EstacióndetrenCaspe,41.2397380,-0.0427010
71205,EstacióndetrenValDePilas,41.2300560,0.07014500
71206,EstacióndetrenFabara,41.2344050,0.14328400
71207,EstacióndetrenNonaspe,41.2137880,0.24247200
71208,EstacióndetrenFaió-LaPoblaDeMassaluca(fayón),41.2252470,0.35027500
71209,EstacióndetrenRiba-RojaD\'ebre,41.2484510,0.48088800
71210,EstacióndetrenFlix,41.2295020,0.54007100
71211,EstacióndetrenAscó,41.1824790,0.56896400
71300,EstacióndetrenMóraLaNova,41.1063740,0.65289300
71301,EstacióndetrenElsGuiamets,41.0934620,0.74717300
71302,EstacióndetrenCapçanes,41.1020570,0.78033000
71303,EstacióndetrenMarçà-Falset,41.1309450,0.81032800
71304,EstacióndetrenPradell,41.1332400,0.85837100
71305,EstacióndetrenDuesaigües-L\'argentera,41.1437760,0.92094200
71306,EstacióndetrenRiudecanyes-Botarell,41.1400270,0.97564800
71307,EstacióndetrenLesBorgesDelCamp,41.1655250,1.02077400
71400,EstacióndetrenReus,41.1605240,1.09997900
71401,EstacióndetrenVila-Seca,41.1127440,1.15038900
71500,EstacióndetrenTarragona,41.1116240,1.25321400
71502,EstacióndetrenAltafulla-Tamarit,41.1364460,1.37453000
71503,EstacióndetrenTorredembarra,41.1428570,1.40566000
71600,EstacióndetrenSantVicençDeCalders,41.186245,1.526315
71601,EstacióndetrenCalafell,41.188736,1.567244
71602,EstacióndetrenSegurDeCalafell,41.192544,1.607745
71603,EstacióndetrenCunit,41.195912,1.631307
71604,EstacióndetrenCubelles,41.204112,1.671807
71700,EstacióndetrenVilanovaILaGeltrú,41.219993,1.733331
71701,EstacióndetrenSitges,41.237757,1.81694
71703,EstacióndetrenGarraf(apt),41.254712,1.904007
71704,EstacióndetrenPlatjaDeCastelldefels,41.2670124,1.9567717
71705,EstacióndetrenCastelldefels,41.2785574,1.9784252
71706,EstacióndetrenGavà,41.304209,2.012793
71707,EstacióndetrenElPratDeLlobregat,41.330762,2.088982
71708,EstacióndetrenBellvitgeIGornal,41.354261,2.115549
71709,EstacióndetrenViladecans,41.309407,2.0277
71801,EstacióndetrenBarcelona-Sants,41.37922,2.140624
71802,EstacióndetrenBarcelona-PasseigDeGracia,41.392281,2.164896
72100,EstacióndetrenRodaDeBarà,41.1840520,1.44015300
72101,EstacióndetrenRodaDeMar,41.1863150,1.45514430
72201,EstacióndetrenElVendrell,41.220531,1.537775
72202,EstacióndetrenL\'arboc,41.273412,1.600516
72203,EstacióndetrenElsMonjos,41.316708,1.662007
72204,EstacióndetrenVilafrancaDelPenedes,41.344856,1.703676
72205,EstacióndetrenLaGranada,41.370925,1.725083
72206,EstacióndetrenLavern-Subirats(apd),41.395755,1.768162
72207,EstacióndetrenSantSadurniD\'anoia,41.419824,1.794186
72208,EstacióndetrenGelida(apd),41.4484539,1.8654326
72209,EstacióndetrenMartorellCentral,41.479459,1.929874
72210,EstacióndetrenCastellbisbal,41.473263,1.967619
72211,EstacióndetrenElPapiol(apd),41.435304,2.002477
72300,EstacióndetrenMolinsDeRei,41.409953,2.020864
72301,EstacióndetrenSantFeliuDeLlobregat,41.383049,2.048042
72302,EstacióndetrenSantJoanDespi(apd),41.368619,2.060305
72303,EstacióndetrenCornella,41.357469,2.070566
72305,EstacióndetrenL\'hospitaletDeLlobregat,41.364129,2.100766
72400,EstacióndetrenElPratAeroport,41.303844,2.07218
72501,EstacióndetrenRubiCanVallhonrat,41.475318,2.037135
72502,EstacióndetrenSantCugatCollFava,41.481295,2.080439
72503,EstacióndetrenCerdanyolaUniversiti,41.496992,2.115035
72508,EstacióndetrenSantaPerpetuaDeMogodaRieraDeCaldes,41.5246497,2.1877809
73001,EstacióndetrenPuigverdDeLleida-ArtesaDeLleida,41.5536500,0.73305800
73002,EstacióndetrenJuneda,41.5438790,0.82558400
73003,EstacióndetrenLesBorgesBlanques,41.5214610,0.87771500
73004,EstacióndetrenLaFloresta,41.5042630,0.92430300
73005,EstacióndetrenVinaixa,41.4250770,0.97030800
73006,EstacióndetrenVimbodí,41.4026100,1.04600800
73007,EstacióndetrenL\'esplugaDeFrancolí,41.4005250,1.10338900
73008,EstacióndetrenMontblanc,41.3766480,1.16543100
73009,EstacióndetrenVilaverd,41.3376020,1.17659900
73010,EstacióndetrenLaRiba,41.3183540,1.18124800
73100,EstacióndetrenLaPlana-Picamoixons,41.3059700,1.19766500
73101,EstacióndetrenAlcover,41.2616580,1.17422800
73102,EstacióndetrenLaSelvaDelCamp,41.2102840,1.14407200
75101,EstacióndetrenAlcoletge,41.6542670,0.68570700
75102,EstacióndetrenVilanovaDeLaBarca,41.6873810,0.72789800
75103,EstacióndetrenTérmens,41.7165250,0.76304600
75104,EstacióndetrenVallfogonaDeBalaguer,41.7557510,0.80561200
75105,EstacióndetrenBalaguer,41.7893330,0.81475000
75106,EstacióndetrenGerb,41.8233290,0.81202300
75107,EstacióndetrenSantLlorençDeMontgai,41.8664090,0.83242400
75108,EstacióndetrenVilanovaDeLaSal,41.9120660,0.83030500
75109,EstacióndetrenSantaLiÑa,41.9317760,0.85243300
75110,EstacióndetrenAger,42.0067390,0.85161700
75111,EstacióndetrenCellers-Llimiana,42.0586990,0.88286800
75112,EstacióndetrenGuardiaDeTremp,42.1014190,0.88804700
75113,EstacióndetrenPalau-Puigcercos,42.1469550,0.89244100
75114,EstacióndetrenTremp,42.1673640,0.89113700
75115,EstacióndetrenSalasDePallars,42.2068450,0.94044700
75116,EstacióndetrenLaPoblaDeSegur,42.2398540,0.96610700
76001,EstacióndetrenSalomó,41.2234740,1.37661700
76002,EstacióndetrenVilabella,41.2403120,1.31560100
76003,EstacióndetrenNulles-Bràfim,41.2503060,1.29744900
76004,EstacióndetrenValls,41.2896300,1.25873400
77002,EstacióndetrenMontcada-Ripollet,41.496658,2.182072
77003,EstacióndetrenSantaPerpetuaDeMogodaLaFlorida,41.521426,2.193917
77004,EstacióndetrenMollet-SantaRosa,41.535064,2.205846
77005,EstacióndetrenParetsDelVallés,41.560527,2.255996
77006,EstacióndetrenGranollers-Canovelles,41.6113633,2.2769926
77100,EstacióndetrenLesFranquesesDelVallés,41.624639,2.298077
77102,EstacióndetrenLaGarriga,41.684575,2.288761
77103,EstacióndetrenFigaró,41.7233684,2.271161
77104,EstacióndetrenSantMartíDeCentelles,41.760542,2.24972
77105,EstacióndetrenCentelles,41.797834,2.223428
77106,EstacióndetrenElsHostaletsDeBalenyà,41.843129,2.250218
77107,EstacióndetrenBalenyà,41.852564,2.264253
77109,EstacióndetrenVic,41.930805,2.248776
77110,EstacióndetrenManlleu,41.998912,2.269314
77111,EstacióndetrenTorelló,42.05217,2.259369
77112,EstacióndetrenBorgonyà(apd),42.065014,2.241286
77113,EstacióndetrenSantQuirzeDeBesora-Montesquiu,42.104658,2.216977
77114,EstacióndetrenLaFargaDeBebié,42.130061,2.203924
77200,EstacióndetrenRipoll,42.195536,2.195977
77301,EstacióndetrenCampdevànol,42.221558,2.165877
77303,EstacióndetrenRibesDeFreser,42.301158,2.166078
77304,EstacióndetrenPlanoles(apt),42.313559,2.103078
77305,EstacióndetrenToses(apt),42.324189,2.029728
77306,EstacióndetrenLaMolina,42.344529,1.956006
77307,EstacióndetrenUrtx-Alp(apt),42.375375,1.899526
77309,EstacióndetrenPuigcerdà,42.428908,1.924085
77310,EstacióndetrenLaTourDeCarol,42.458629,1.904703
78005,EstacióndetrenVillanuevaDeGállego,41.7655100,-0.8222040
78100,EstacióndetrenZuera,41.8771660,-0.7641720
78200,EstacióndetrenTardienta,41.9757160,-0.5382230
78201,EstacióndetrenGraÑén,41.9380330,-0.3693290
78202,EstacióndetrenMarcen-PoleÑino,41.8819110,-0.2834560
78203,EstacióndetrenSariÑena,41.8175290,-0.1707600
78300,EstacióndetrenSelgua,41.9063330,0.14818700
78301,EstacióndetrenMonzón-RíoCinca,41.9136790,0.19693900
78302,EstacióndetrenBinéfar,41.8497680,0.29147800
78400,EstacióndetrenLleida-Pirineus,41.6206960,0.63266900
78402,EstacióndetrenBell-LlocD\'urgell,41.6316190,0.78154700
78403,EstacióndetrenMollerussa,41.6317790,0.89677500
78404,EstacióndetrenGolmés,41.6359290,0.93086300
78405,EstacióndetrenCastellnouDeSeana,41.6374640,0.96773600
78406,EstacióndetrenBellpuig,41.6325450,1.01299300
78407,EstacióndetrenAnglesola,41.6464480,1.07919200
78408,EstacióndetrenTàrrega,41.6503870,1.13896300
78500,EstacióndetrenCervera,41.6736110,1.27477300
78501,EstacióndetrenSantGuimDeFreixenet,41.6559240,1.42053000
78502,EstacióndetrenSantMartíSesgueioles,41.7012170,1.48620400
78503,EstacióndetrenCalaf,41.7303340,1.51509700
78504,EstacióndetrenSeguers-SantPereSallavinera,41.7479910,1.57416700
78505,EstacióndetrenAguilarDeSegarra,41.7389170,1.62372000
78506,EstacióndetrenRajadell,41.7331590,1.69627500
78600,EstacióndetrenManresa,41.720129,1.82899
78604,EstacióndetrenSantVicençDeCastellet,41.667899,1.863451
78605,EstacióndetrenCastellbellIElVilar-MonistrolMonts,41.628059,1.869875
78606,EstacióndetrenVacarisses,41.6019242,1.8918433
78607,EstacióndetrenVacarisses-Torreblanca,41.577138,1.921807
78609,EstacióndetrenViladecavalls,41.565479,1.954342
78610,EstacióndetrenSantMiquelDeGonteres,41.568123,1.975712
78700,EstacióndetrenTerrassaEstacioNord,41.570159,2.019075
78703,EstacióndetrenSabadellSud,41.53662,2.105617
78704,EstacióndetrenSabadellCentre,41.549572,2.114757
78705,EstacióndetrenBarberáDelVallés,41.507162,2.127558
78706,EstacióndetrenCerdanyolaDelVallés,41.492582,2.14763
78707,EstacióndetrenMontcadaIReixac-SantaMaría,41.481232,2.166922
78708,EstacióndetrenMontcadaIReixac-Manresa,41.483996,2.185513
78709,EstacióndetrenSabadellNord,41.562871,2.087794
78710,EstacióndetrenTerrasaEst,41.567261,2.041561
78800,EstacióndetrenMontcadaBifurcació,41.468992,2.178904
78801,EstacióndetrenTorreBaroYVallbona,41.460945,2.181042
78802,EstacióndetrenBarcelona-FabraIPuig,41.430893,2.183095
78804,EstacióndetrenBarcelona-ArcDeTriomf,41.391864,2.180076
78805,EstacióndetrenBarcelona-PlaçaDeCatalunya,41.386726,2.166458
78806,EstacióndetrenBarcelonaLaSagreraMeridiana,41.422638,2.187262
79004,EstacióndetrenBarcelona-SantAndreu,41.435807,2.193572
79005,EstacióndetrenMontcadaIReixac,41.483833,2.188193
79006,EstacióndetrenMollet-SantFost,41.530069,2.215485
79007,EstacióndetrenMontmelo,41.5519598,2.2517501
79009,EstacióndetrenBarcelona-ElClot,41.41745,2.192893
79011,EstacióndetrenLlagosta,41.510428,2.199740
79100,EstacióndetrenGranollersCentre,41.594528,2.29107
79101,EstacióndetrenCardedeu,41.6354891,2.3576977
79102,EstacióndetrenLlinarsDelValles,41.636058,2.403675
79103,EstacióndetrenPalautordera(apd),41.670899,2.452823
79104,EstacióndetrenSantCeloni,41.686024,2.491262
79105,EstacióndetrenGualba,41.714078,2.533778
79106,EstacióndetrenRiellsIViabrea-Breda,41.723357,2.560075
79107,EstacióndetrenHostalric,41.747657,2.632175
79109,EstacióndetrenLesFranqueses-GranollersNord,41.617306,2.292859
79200,EstacióndetrenMaçanet-Massanes,41.778657,2.678775
79202,EstacióndetrenSils,41.8076830,2.74486000
79203,EstacióndetrenCaldesDeMalavella,41.8410980,2.80076500
79204,EstacióndetrenRiudellots,41.8962320,2.81159900
79205,EstacióndetrenFornellsDeLaSelva,41.9351570,2.80973200
79300,EstacióndetrenGirona,41.9793030,2.81700600
79301,EstacióndetrenCelrà,42.0272300,2.87496900
79302,EstacióndetrenBordils-Juià,42.0370680,2.91525500
79303,EstacióndetrenFlaçà,42.0475960,2.95750600
79304,EstacióndetrenSantJordiDesvalls,42.0683190,2.96453300
79305,EstacióndetrenCamallera,42.1223590,2.96544800
79306,EstacióndetrenSantMiquelDeFluvià,42.1720870,2.98966300
79308,EstacióndetrenVilamalla,42.2162020,2.97787400
79309,EstacióndetrenFigueres,42.2650650,2.96878700
79311,EstacióndetrenVilajuïga,42.3257390,3.08538500
79312,EstacióndetrenLlançà,42.3665949,3.14898700
79314,EstacióndetrenColera,42.4070680,3.15426200
79315,EstacióndetrenPortbou,42.4244940,3.15785800
79316,EstacióndetrenCerbère,42.4414760,3.16325900
79400,EstacióndetrenBarcelona-EstacióDeFrança,41.384089,2.187004
79403,EstacióndetrenSantAdriàDeBesòs(apd),41.424665,2.230761
79404,EstacióndetrenBadalona,41.445802,2.249257
79405,EstacióndetrenMontgat,41.463418,2.271692
79406,EstacióndetrenMontgat-Nord(p),41.468941,2.286615
79407,EstacióndetrenElMasnou,41.477702,2.314362
79408,EstacióndetrenOcata(apd),41.483293,2.337839
79409,EstacióndetrenPremiáDeMarApeadero,41.488348,2.357075
79410,EstacióndetrenVilassarDeMar,41.501746,2.392842
79412,EstacióndetrenCabreraDeMar,41.5065238,2.3992054
79500,EstacióndetrenMataró,41.533245,2.445797
79501,EstacióndetrenSantAndreuDeLlavaneres(apt),41.55596,2.50184
79502,EstacióndetrenCaldesD\'estrac,41.569216,2.527982
79600,EstacióndetrenArenysDeMar,41.578795,2.552336
79601,EstacióndetrenCanetDeMar,41.587123,2.583146
79602,EstacióndetrenSantPolDeMar,41.600184,2.627001
79603,EstacióndetrenCalella,41.614691,2.666203
79604,EstacióndetrenPinedaDeMar,41.622203,2.693515
79605,EstacióndetrenMalgratDelMar,41.642728,2.744502
79606,EstacióndetrenBlanes,41.672594,2.769389
79607,EstacióndetrenTordera,41.70643,2.721235
79608,EstacióndetrenSta.susann,41.629763,2.714036
97100,EstacióndetrenPitis,40.4954011,-3.7260638
97200,EstacióndetrenMirasierra-PacoDeLucía,40.499662,-3.709016
97201,EstacióndetrenMadrid-RamónYCajal,40.4882980,-3.6946827
98003,EstacióndetrenFteDeLaMora,40.4847940,-3.6628860
98304,EstacióndetrenValdebebas,40.482,-3.616292
98305,EstacióndetrenMadrid-AeropuertoT4,40.49174,-3.593473
