stop_id,stop_name,stop_lat,stop_lon
04040,Zaragoza-Delicias,41.658649,-0.911615
05102,SanXoán,43.494664,-8.213713
05103,SantaIcía,43.500113,-8.199581
05104,VirxeDoMar,43.496509,-8.204876
05105,PiÑeiros,43.509526,-8.183968
05106,OPonto,43.514774,-8.177783
05107,Xuvia,43.517113,-8.161322
05108,OAltoDoCastiÑeiro,43.503179,-8.195559
05109,Ferrerías,43.527976,-8.150454
05111,Sedes,43.542607,-8.140199
05113,PedrosoDeNarón,43.536748,-8.109213
05115,SanSadurniÑo,43.546021,-8.077931
05117,Lamas,43.5472900,-8.0492450
05119,Apalla,43.5504630,-8.0186490
05121,Moeche,43.562171,-8.002732
05123,Labacengos,43.56528,-7.980225
05125,Entrambarrías,43.57706,-7.954257
05127,Cerdido,43.5872050,-7.9346260
05129,ACuqueira,43.6078760,-7.9218320
05131,SantaMariaDeMera,43.6409800,-7.9161920
05133,Pontemera,43.6660730,-7.9026410
05135,SanClodio,43.660887,-7.873495
05137,Serna,43.668783,-7.8545455
05139,Ortigueira,43.686268,-7.849488
05201,GijónRam,43.535175,-5.698318
05203,TremaÑes-CarreÑo,43.528549,-5.694869
05204,CentruDeTresportes,43.531135,-5.706739
05207,AboÑoApd,43.5550500,-5.7235900
05208,Xibares,43.565927,-5.728723
05209,Perlora,43.5807800,-5.7536800
05210,CandásApd,43.5865400,-5.7680100
05211,Candás,43.584718,-5.772722
05213,ElRegueral,43.5804800,-5.7976300
05215,SanZabornín,43.5690800,-5.8253300
05216,Gudín-Llaminación,43.552295,-5.865382
05217,Trasona/Tresona,43.5518000,-5.8743800
05218,Oficines,43.551308,-5.877217
05219,Llaranes,43.5541500,-5.8970300
05220,Cristalería,43.5755430,-5.9293450
05221,AvilésApd,43.554627,-5.917472
05222,Avilés-Cim,43.5612740,-5.9229240
05224,RaícesNuevo/LaFundición,43.576334,-5.939915
05225,Salinas,43.5703900,-5.9566300
05227,Piedrasblancas,43.556554,-5.975562
05229,Vegarrozadas,43.551162,-5.99556
05231,Santiagu\'lMonte,43.540979,-6.028002
05232,ElParador,43.5352400,-6.0705300
05233,Sotu\'lBarcu,43.5292900,-6.0712400
05235,Riberas,43.502742,-6.074331
05237,PeÑaullán,43.491163,-6.093979
05239,Santianes,43.503755,-6.091829
05241,LosCabos,43.5124440,-6.0975140
05243,MurosDeNalón,43.542957,-6.111114
05244,ElPito-PiÑera,43.546893,-6.143335
05245,Cudillero,43.550925,-6.151968
05300,ElVallobín,43.3653000,-5.8649000
05301,L\'argaÑosa-Llapiés,43.365832,-5.870018
05302,AsCampas,43.3638300,-5.8834600
05303,LesMaces,43.3586700,-5.8975600
05304,SanClaudio/SanCloyo,43.355333,-5.917811
05306,SanPedruNora,43.3687400,-5.9588000
05308,Sotu-Udrión,43.3557070,-5.9653520
05311,Trubia,43.3485300,-5.9676500
05313,SantaMaríaGrau,43.3837900,-5.9826300
05315,VeigaD\'anzu,43.3893500,-6.0058600
05316,PeÑaflor,43.402931,-6.045405
05317,Grau/Grado,43.3945300,-6.0637200
05319,Sandiche,43.425605,-6.05996
05320,Aces,43.4399280,-6.0657890
05321,SanRomán,43.4489560,-6.0772830
05323,Beifar,43.4700840,-6.0988770
05325,Pravia,43.4909700,-6.1106200
05327,SanRanón,43.5164940,-6.0820650
05329,SanEsteban,43.552084,-6.087238
05361,BaíÑa,43.274515,-5.828206
05369,MieresDelCamín-ElVasco,43.2502800,-5.7799900
05371,Santuyano-Caudalia,43.22628,-5.783320
05373,Figareo,43.2139570,-5.7839830
05375,Uxo-Taruelo,43.2006000,-5.7876500
05376,SantaCruz,43.1959450,-5.7775460
05377,Caborana,43.1760210,-5.7547090
05379,Morea/Moreda,43.1707800,-5.7418920
05380,SanAntonio,43.1688900,-5.6967710
05381,L\'oyanco,43.1665400,-5.7217800
05382,Corigos,43.1642800,-5.6766600
05383,PiÑeres,43.1659700,-5.6842500
05384,Santana-Soto,43.16478,-5.646112
05385,CabaÑaquinta/Cabanaquinta,43.1608300,-5.6249100
05387,L.levinco,43.151098,-5.600266
05389,Col.lanzo,43.124043,-5.566384
05403,TremaÑes-Llangréu/Langreo,43.528766,-5.694847
05405,Sotiello,43.507289,-5.726564
05407,Pinzales,43.4865850,-5.7196960
05409,Aguda,43.46603,-5.72606
05410,Xixún,43.370778,-5.69338
05411,LaFlorida,43.4345900,-5.7100000
05412,PuenteBuracos,43.4481100,-5.7173900
05413,NoreÑa,43.3939800,-5.7037100
05415,Bendición,43.3633710,-5.6803400
05416,Valdesoto,43.3584160,-5.6585900
05417,Carbayín,43.3511680,-5.6347560
05420,Curuxona,43.339403,-5.63081
05421,Tiuya/Tuilla,43.328069,-5.643052
05425,LaFelguera-Vega,43.3105200,-5.6859000
05429,Sama-LosLlerones,43.298761,-5.683358
05431,CiaÑu,43.290721,-5.667903
05432,SanVicente,43.28911,-5.65285
05433,L\'entregu-LaEscura,43.289509,-5.640809
05435,Carrocera,43.28774,-5.62637
05436,Samartín,43.278378,-5.615305
05437,Sotrondio,43.2757800,-5.6048100
05439,Blimea,43.2708200,-5.5903000
05441,LosBarreros/Barredos,43.2598700,-5.5750400
05443,LaPolaDeLlaviana/PolaDeLaviana,43.2506800,-5.5644900
05451,BilbaoLaConcordia,43.259998,-2.926286
05455,BasurtoHospital,43.259754,-2.953828
05457,Feve-ZorrozaZorrozgoiti,43.273951,-2.974167
05459,SantaAgueda,43.261854,-2.973004
05460,Kastrexana,43.255361,-2.972073
05461,Irauregui,43.248317,-2.990089
05463,Zaramillo,43.2332250,-3.0160370
05465,LaQuadra,43.222712,-3.024874
05467,Sodupe,43.202057,-3.050494
05469,Artxube,43.201091,-3.071677
05470,Lambarri,43.205985,-3.08262
05471,GüeÑes,43.20908,-3.095381
05473,Aranguren,43.210494,-3.109354
05474,Aranguren/Apdro.,43.210347,-3.114075
05475,Zalla,43.212797,-3.133284
05477,Colegio,43.2108840,-3.1387030
05479,Ibarra,43.2039570,-3.1448310
05481,LaHerrera,43.203182,-3.170446
05483,Balmaseda,43.196388,-3.189924
05485,LaCalzada,43.190121,-3.197160
05501,OviedoRam,43.366841,-5.854263
05504,ParquePrincipado,43.3868100,-5.8088900
05505,Colloto/Cualloto,43.3794400,-5.7922500
05507,Meres,43.3807153,-5.7488323
05508,Fonciello,43.3817019,-5.7296665
05509,ElBerrón,43.3825250,-5.7026550
05511,LaCarrera,43.386909,-5.675275
05513,LaPolaSiero,43.388113,-5.664779
05515,LosCorros,43.376828,-5.601385
05517,Lieres,43.38058,-5.582573
05519,Rianes,43.3789387,-5.5628276
05521,ElRemediu,43.375076,-5.546238
05522,Llames,43.3687800,-5.5256600
05523,Nava,43.3611700,-5.5092900
05525,Fuentesanta/Huentesanta,43.3554700,-5.4782400
05527,Ceceda/Cecea,43.3561800,-5.4511700
05529,Carancos,43.355586,-5.434425
05531,Pintueles,43.3614480,-5.3874960
05533,L\'infiestu,43.351777,-5.36921
05534,L\'infiestuApd,43.3438950,-5.3572830
05601,SantanderRam,43.4583294,-3.8120706
05602,ValdecillaLaMarga,43.452804,-3.828602
05603,CazoÑa,43.455249,-3.841491
05604,Adarzo,43.453465,-3.85579
05605,Bezana,43.4409900,-3.8996100
05607,Mortera,43.435207,-3.918223
05609,BooDePiélago,43.4316340,-3.9464320
05611,Mogro,43.4250400,-3.9607600
05613,Gornazo,43.409638,-3.988686
05615,Mar,43.398343,-4.010047
05617,Requejada,43.3913700,-4.0279800
05619,Barreda,43.37424,-4.04187
05620,Altamira,43.3536040,-4.0606090
05621,Torrelavega/Centro,43.35093,-4.051009
05622,Ganzo,43.356546,-4.070291
05623,PuenteSanMiguel,43.3586380,-4.0877570
05625,SantaIsabelDeQuijas,43.3589770,-4.1118650
05627,SanPedroDeRudagüera,43.361127,-4.149519
05629,Golbardo,43.3408710,-4.1555960
05631,CasarDePeriedo,43.3387700,-4.1747300
05633,VirgenDeLaPeÑa,43.323142,-4.193685
05635,Ontoria,43.3152500,-4.2155400
05637,CabezónDeLaSal,43.3077700,-4.2319600
05651,NuevaMontaÑa,43.440103,-3.849398
05652,ValleReal,43.427513,-3.840498
05655,MaliaÑoLaVidriera,43.416083,-3.841081
05657,Astillero,43.4037100,-3.8212500
05658,LaCantábrica,43.397296,-3.814914
05659,SanSalvador,43.393758,-3.803777
05661,Heras,43.401139,-3.766305
05663,Orejo,43.399487,-3.737923
05665,Solares,43.3874800,-3.7313100
05667,CeceÑas,43.376441,-3.717872
05669,LaCavada,43.350589,-3.706766
05671,Liérganes,43.3448200,-3.7421200
05721,Arla-Berrón,43.1666990,-3.2275890
05722,UngoNava,43.1428940,-3.2647160
05724,Mercadillo-Villasana,43.1052090,-3.2644690
05727,Cadagua,43.0681710,-3.3473390
05730,BercedoMontija,43.0884790,-3.4560000
05731,QuintanaDeLosPrados,43.0800000,-3.5100000
05732,EspinosaDeLosMonteros,43.0742520,-3.5371160
05733,Redondo,43.0629930,-3.6078950
05734,Sotoscueva,43.0452920,-3.6882530
05735,Pedrosa,43.0123670,-3.7378520
05736,DosanteCidad,43.0012500,-3.7452500
05737,RobredoAhedo,43.0190940,-3.8092310
05738,Soncillo,43.005809,-3.844888
05739,CabaÑasDeVirtus,42.996397,-3.858466
05740,Arija,42.9912920,-3.9450060
05741,Llano,42.9880620,-3.9823570
05742,Feve-LasRozasDeValdearroyo,42.9736050,-4.0298640
05743,MontesClaros,42.9343230,-4.0500730
05744,LosCarabeos,42.9103290,-4.0752110
05747,Cillamayor,42.8577520,-4.2791780
05748,SalinasDePisuerga,42.8512710,-4.3862090
05749,VadoCervera,42.8393600,-4.4947700
05750,CastrejónDeLaPeÑa,42.8119900,-4.6016200
05751,VillaverdeTarilonte,42.8183530,-4.6854190
05752,SantibaÑezDeLaPeÑa,42.8020400,-4.7414500
05753,Guardo/Apdro.,42.7877600,-4.8451920
05754,Guardo,42.7910800,-4.8520100
05755,LaLlamaDeLaGuzpeÑa,42.7702740,-5.0412990
05756,LaEspina,42.787317,-4.905185
05757,Valcuende,42.7656200,-4.9292100
05758,PuenteAlmuhey,42.78764,-4.971911
05759,PradoDeLaGuzpeÑa,42.7838799,-5.0264800
05760,ValleDeLasCasas,42.7677800,-5.0711100
05761,Cistierna,42.8031400,-5.1307600
05762,Yugueros,42.809817,-5.180063
05763,LaErcina,42.8086800,-5.2140870
05764,Barrillos,42.812364,-5.283128
05765,Feve-LaLosilla,42.838561,-5.318151
05766,BoÑar,42.862759,-5.328534
05767,LaVecilla,42.855095,-5.412162
05768,Aviados,42.854774,-5.442816
05769,LaValcueva,42.84966,-5.486957
05770,Matallana,42.841068,-5.522135
05771,Pardavé,42.806349,-5.508186
05772,Pedrún,42.791013,-5.506954
05773,Manzaneda,42.754603,-5.51641
05774,Garrafe,42.734502,-5.52421
05775,Palazuelo,42.707132,-5.533764
05776,SanFeliz,42.682301,-5.537782
05777,Villaquilambre,42.6469340,-5.5540460
05785,Villasinta,42.657554,-5.549298
05786,Matueca,42.771532,-5.51194
05787,Naredo,42.833441,-5.523002
05788,Robles,42.840743,-5.507292
05789,Campohermoso,42.855941,-5.42872
05790,Sorriba,42.786278,-5.127479
05793,LaMataDeLaRiba,42.858578,-5.339645
05794,LaRaya,42.629108,-5.561383
05795,Feve-Otero,42.859568,-5.389983
05796,VillaRomana,42.629111,-5.561338
05797,Valdepiélago,42.8650500,-5.4032170
05798,LaDevesa,42.820148,-5.302187
05799,CerezalDeLaGuzpeÑa,42.7798340,-5.0058510
05803,LaAsunción/Universidad,42.615821,-5.566379
05805,BarrioDeLasOllas,42.858586,-5.339549
05807,Valderilla,42.717641,-5.530277
05951,Feve-CartagenaPlazaBastarreche,37.603575,-0.977029
05952,Hospital,37.60529,-0.960681
05953,MediaLegua,37.607888,-0.953643
05955,VistaAlegre,37.609294,-0.944179
05957,ElAbrevadero,37.609727,-0.931259
05959,Alumbres,37.609929,-0.914841
05961,LaEsperanza,37.613793,-0.891342
05963,LaUniónVieja,37.615466,-0.881629
05965,LaUnión,37.615673,-0.875217
05967,SierraMinera,37.61985,-0.864864
05969,LlanoDelBeal,37.626055,-0.83621
05971,ElEstrecho,37.627603,-0.829591
05973,LosNietosViejos,37.646924,-0.791485
05975,LosNietosPescadería,37.649354,-0.787864
05977,LosNietos,37.651839,-0.796983
06001,Librilla(apd),37.8865569,-1.3471673
06002,AlhamaDeMurcia,37.8493837,-1.4145055
06003,Totana,37.7635101,-1.4956127
06004,LaHoya(apd),37.7037338,-1.5954024
06005,Lorca-SanDiego(apd),37.6805717,-1.6858944
06006,LorcaSutullena,37.6725714,-1.6959002
06007,PuertoLumbreras(apt),37.5809194,-1.731775
06008,AlcantarillaLosRomanos,37.9642527,-1.2170108
06100,Almendricos,37.4748912,-1.7796447
07001,Pulpi(apd),37.3999194,-1.7501361
07003,Jaravia(apd),37.3925027,-1.693175
07004,águilas,37.4098333,-1.5725777
07007,Aguilas-Lb,37.4119055,-1.5859138
10000,Madrid-PrincipePio,40.4215361,-3.7190805
10001,Aravaca(apd-Cgd),40.4484027,-3.7855512
10002,Pozuelo,40.4473443,-3.8002865
10005,LasRozas(apd),40.4942255,-3.8681086
10007,Majadahond,40.4742448,-3.8452712
10010,ElBarrial,40.4653336,-3.8078526
10100,PinarDeLasRozas,40.5222566,-3.8822585
10101,LasMatas,40.5523275,-3.8967651
10103,Torrelodones,40.5745499,-3.9565955
10104,Galapagar-LaNavata,40.6002664,-3.9822646
10200,VillalbaDeGuadarrama,40.6265067,-4.0081871
10201,SanYago,40.6178786,-4.0312349
10202,LasZorreras-Navalquejigo,40.6092725,-4.0463634
10203,ElEscorial,40.5852811,-4.1324479
10204,Zarzalejo,40.538710,-4.158180
10205,RobledoDeChavela,40.520802,-4.246774
10206,SantaMaríaDeLaAlameda-Peguerinos,40.568937,-4.269332
11305,Brinkola-OÑati,43.019887,-2.334469
11306,Legazpi,43.052263,-2.329396
11400,Zumarraga,43.088273,-2.318462
11402,Ormaiztegui,43.040151,-2.255831
11404,Beasain,43.046174,-2.203234
11405,Ordizia/Ordicia,43.052583,-2.181019
11406,Itsasondo(apd),43.068955,-2.162736
11407,Legorreta,43.085187,-2.14555
11408,Ikazteguieta(apd),43.094977,-2.126252
11409,Alegia,43.10214,-2.099346
11500,Tolosa,43.131936,-2.085247
11501,TolosaCentro,43.13597,-2.078512
11502,Anoeta,43.165233,-2.071624
11503,Villabona-Zizurkil,43.189391,-2.055641
11504,Andoain-Centro,43.214729,-2.020394
11505,Andoain,43.221715,-2.016357
11506,Urnieta,43.243416,-1.991492
11507,Hernani-Centro,43.261977,-1.975726
11508,Hernani,43.272283,-1.964175
11509,Martutene,43.29442,-1.956981
11510,Loiola,43.304772,-1.964289
11511,SanSebastián/Donostia,43.317669,-1.976704
11512,Gros,43.322077,-1.972632
11513,Ategorrieta(apd),43.321814,-1.967016
11514,Herrera(apd),43.320009,-1.917946
11515,Pasaia,43.318764,-1.904324
11516,Lezo-Errenteria,43.313544,-1.895015
11518,VentasDeIrun,43.331008,-1.816203
11522,Intxaurrondo,43.32068,-1.952632
11600,Irun,43.339582,-1.800192
12001,LosNegrales,40.6385681,-4.0220307
12002,Alpedrete-Mataespesa,40.6580931,-4.0350813
12004,ColladoMediano,40.6927600,-4.0359164
12005,LosMolinos-Guadarrama,40.7066368,-4.0673999
12006,Cercedilla,40.7375282,-4.0664502
12020,PuertoNavacerrada(apt),40.7842464,-4.0050168
12023,LosCotos(apt),40.8223493,-3.9644101
13100,OrduÑa,42.994971,-3.014669
13101,Amurrio,43.042794,-3.004019
13102,Salbio,43.064293,-2.995857
13103,Luiaondo,43.093554,-2.999662
13104,SantaCruzDeLlodio,43.132448,-2.970197
13106,Llodio,43.142721,-2.959916
13107,Areta,43.146085,-2.945719
13108,Arbide,43.159117,-2.929893
13109,Arrankudiaga(apd),43.1689773,-2.9190924
13110,Ugao-Miraballes,43.180117,-2.903493
13111,Arrigorriaga,43.2123426,-2.8906975
13112,Basauri(apd),43.226952,-2.888881
13113,Bidebieta-Basauri,43.238817,-2.892993
13114,Ollargan,43.244697,-2.912016
13115,Bakiola,43.176332,-2.909743
13116,IÑarratxu,43.017154,-3.011418
13117,Arakaldo,43.154817,-2.938893
13118,Abaroa-Sm,43.236846,-2.889762
13119,LaPeÑa,43.239764,-2.923413
13120,Miribilla,43.25325,-2.9294
13121,AmurrioIparralde,43.0513,-2.99965
13200,Bilbao-AbandoIndalecioPrieto,43.259609,-2.92915
13205,Zabalburu,43.256752,-2.932127
13206,Ametzola,43.255428,-2.940762
13207,Autonomia,43.257784,-2.94615
13208,S.Mames,43.261825,-2.948816
13303,Olabeaga,43.264166,-2.957191
13304,Zorrotza,43.277780,-2.972117
13305,Lutxana-Barakaldo,43.288106,-2.975335
13400,Desertu-Barakaldo,43.300475,-2.984948
13401,Sestao,43.310243,-2.997303
13402,LaIberia(apd),43.311861,-3.00425
13403,Portugalete,43.318728,-3.015567
13404,PeÑota,43.329766,-3.031149
13405,Santurtzi,43.335671,-3.041196
13501,Galindo,43.300847,-3.021017
13502,Trapaga,43.30335,-3.0351
13503,ValleDeTrapaga/Trapagaran,43.307763,-3.039786
13504,Ortuella,43.310251,-3.058531
13505,Putxeta,43.31623,-3.089951
13506,Muskiz,43.321472,-3.112317
13507,Urioste,43.306411,-3.046882
13508,Gallarta(apd),43.320472,-3.073542
13509,SagradaF.,43.308212,-3.052896
14200,Mataporquera,42.8709010,-4.1654060
14202,Reinosa,42.995158,-4.139917
14203,Lantueno-Santiurde,43.064618,-4.086294
14204,Pesquera,43.083718,-4.079594
14206,Bárcena,43.130561,-4.056662
14207,Molledo-Portolín,43.146897,-4.043563
14208,SantaCruzDeIguÑa,43.167067,-4.048194
14209,LasFraguas,43.194318,-4.057394
14210,LosCorralesDeBuelna,43.257961,-4.064679
14211,LasCaldasDeBesaya,43.295518,-4.075294
14212,Viernoles,43.327437,-4.042475
14213,Torrelavega/Tanos,43.33974,-4.02896
14214,Sierrapando,43.347118,-3.991694
14215,Zurita,43.357826,-3.979697
14216,Renedo,43.355636,-3.953732
14217,Parbayón,43.375214,-3.90092
14218,Guarnizo,43.398271,-3.850226
14219,Boo,43.404295,-3.8432
14220,MaliaÑo,43.41664,-3.841901
14221,Muriedas,43.4265260,-3.8482400
14223,Santander,43.458575,-3.811223
14230,Valdecilla,43.450492,-3.838889
14231,NuevaMontaÑa,43.445244,-3.846303
14232,Lombera,43.276219,-4.071153
14233,RíoEbro,43.025658,-4.097112
14234,Pujayo,43.123726,-4.08172
14235,ArenasDeIguÑa,43.186618,-4.054394
14236,VioÑo,43.360717,-3.964874
14237,Muriedas-Bahía,43.435311,-3.850821
15118,Fierros,43.07152,-5.769496
15119,LaFrecha,43.09722,-5.797896
15120,Campumanes,43.11112,-5.814196
15121,LaCobertoria,43.130231,-5.812825
15122,LaPola,43.158942,-5.831075
15123,Vil.layana,43.186778,-5.803633
15200,Uxo,43.20702,-5.791496
15202,Santuyano,43.214944,-5.785817
15203,MieresDelCamín,43.250027,-5.78028
15205,AblaÑa,43.267493,-5.804693
15206,LaPerea,43.277234,-5.812279
15207,Olloniego/Lluniego,43.29622,-5.819295
15208,SotoRei/SotoDeRey,43.30762,-5.856895
15209,LesSegaes/LasSegadasDeAbajo,43.312842,-5.86918
15210,ElCaleyu,43.33042,-5.868395
15211,Oviedo/Uviéu,43.366841,-5.854263
15212,Lugones/Llugones,43.40347,-5.812935
15217,LaCorredoria,43.383422,-5.830233
15218,Llamaquique,43.355864,-5.855475
15300,LugoDeLlanera,43.445519,-5.817438
15301,Villabona,43.46082,-5.825595
15302,Serín,43.50482,-5.780395
15303,Montiana,43.527578,-5.735516
15305,Tabladiello,43.474597,-5.802526
15400,VeriÑa,43.54092,-5.725018
15401,LaCalzada,43.534132,-5.70981
15410,Gijón/Xixón,43.535175,-5.698318
16001,Santolaya,43.31742,-5.812495
16002,Veguín,43.33152,-5.772595
16005,PeÑarrubia,43.32212,-5.722295
16006,Barros,43.3178079,-5.7109228
16008,LaFelguera,43.304594,-5.692439
16009,Sama,43.291503,-5.679332
16010,CiaÑu,43.289192,-5.66793
16011,L\'entregu/ElEntrego,43.2872372,-5.6479229
16301,FerroÑes,43.475556,-5.861372
16302,Cancienes,43.51582,-5.869095
16400,Nubledo/Nubleo,43.52212,-5.869295
16401,Villalegre,43.536871,-5.896108
16402,LaRocica,43.5467,-5.9052
16403,Avilés,43.561191,-5.922576
16405,SanXuan,43.58952,-5.932595
16408,LosCampos,43.536675,-5.885115
17000,Madrid-Chamartín-ClaraCampoamor,40.4720993,-3.6824687
17001,Fuencarral(apt),40.5015242,-3.6824808
17003,ElGoloso(apd),40.5587539,-3.7139504
17004,TresCantos(apt),40.5985252,-3.7155822
17005,ColmenarViejo,40.6451853,-3.7765198
17009,UniversidadCantoBlanco,40.5438226,-3.7001834
18000,Madrid-AtochaCercanías,40.4061556,-3.6889579
18001,Madrid-Recoletos,40.4234123,-3.6908535
18002,Madrid-NuevosMinisterios,40.4466171,-3.6923408
18003,M.alvaro-P,40.3956167,-3.6777094
18004,Delicias,40.4003715,-3.692763
18005,Pirámides,40.4025917,-3.7113344
18101,Madrid-Sol,40.4168778,-3.7032107
19001,U.p.comill,40.554058,-3.683335
19002,Valdelasfu,40.5474433,-3.6543338
19003,Alcob.sseb,40.546566,-3.6351819
21010,Ferrol,43.4880349,-8.2311430
35001,Leganés,40.3286349,-3.7711552
35002,Fuenlabrada,40.2833747,-3.7994538
35009,Zarzaquemada,40.3406009,-3.7482111
35010,LaSerna,40.2967500,-3.7926450
35011,P.polvoran,40.3125398,-3.7835135
35012,Humanes,40.2556903,-3.8286016
35600,Madrid-Aluche,40.3856315,-3.7607442
35601,MaestraJustaFreirePolideportivoAluch,40.3836517,-3.7685682
35602,LasAguilas,40.3811836,-3.7802739
35603,CuatroVientos,40.3777633,-3.7914876
35604,SanJoseDeValderas,40.3565467,-3.8155715
35605,Alcorcon,40.3502521,-3.8320940
35606,Mostoles,40.3284890,-3.8638111
35607,MostolesElSoto,40.330971,-3.882441
35608,Laguna,40.3991775,-3.7442226
35609,Embajador.,40.4051246,-3.7026286
35610,L.Retamas,40.3420458,-3.8424115
35701,MendezAlvaro,40.3957270,-3.6778070
35702,DoceOctub,40.3790374,-3.6988513
35703,Orcasitas,40.3666963,-3.7046002
35704,PuenteAlcocer,40.3504002,-3.7051062
37001,Madrid-VillaverdeAlto,40.3415512,-3.7115464
37002,GetafeCentro,40.3098934,-3.7340237
37010,Margaritas,40.3229367,-3.7272747
37011,GetafeS-3,40.2882215,-3.7375106
37012,Parla,40.2411556,-3.7692726
40113,Cazalla-Constantina,37.9327717,-5.7044058
40114,FabricaDelPedroso,37.8624888,-5.7403111
40115,Pedroso,37.8373261,-5.7624477
40118,Arenillas(apt-Cgd),37.7009472,-5.7502583
40119,VillanuevaDelRío-Minas,37.6616071,-5.7121550
40121,AlcoleaDelRío,37.6354388,-5.7308277
40122,Tocina,37.6092611,-5.7316916
43000,SanJeronimo,37.434667,-5.982378
43002,Camas,37.4017138,-6.0371611
43003,VillanuevaAriscalYOliv.(apt),37.4070916,-6.1482194
43004,SanlucarLaMayor(apd-Cgd),37.3814027,-6.1939333
43005,Benacazón,37.3567611,-6.2082805
43026,Valencina-Santiponce,37.42963,-6.065401
43027,Salteras,37.4106611,-6.0988333
50600,LoraDelRío,37.6613027,-5.5295472
50602,Guadajoz,37.5813944,-5.6699222
50700,LosRosales,37.5898444,-5.7261638
50701,Cantillana,37.5742444,-5.8031861
50702,Brenes,37.5462666,-5.8667722
50703,LaRinconada,37.4800777,-5.9401246
50704,ElCaÑamo,37.488,-5.9312
51003,Sevilla-SantaJusta,37.3921277,-5.9752694
51009,P.congreso,37.4037820,-5.9362556
51010,P.pioPalm,37.3708446,-5.9394732
51050,Cartuja,37.4078985,-6.0098499
51051,Est.olimp,37.4172225,-6.0074834
51100,Sevilla-SanBernardo,37.3775194,-5.9796
51103,DosHermanas,37.2872,-5.9235192
51104,DonRodrigo(apt),37.2330760,-5.8467420
51110,Sevilla-VirgenDelRocío,37.3628,-5.9760111
51111,Bellavista,37.3214916,-5.9641861
51112,Cantaelgallo,37.2781444,-5.9104055
51113,JardinesDeHércules,37.33273,-5.964503
51200,Utrera,37.1845444,-5.7907966
51202,LasCabezasDeSanJuan,37.0193453,-5.9465554
51203,Lebrija,36.9299735,-6.0864165
51205,JerezAeropuerto,36.751147,-6.066664
51300,JerezDeLaFrontera,36.6800290,-6.1264716
51400,PuertoDeSantaMaría,36.6037962,-6.2171641
51401,PuertoReal,36.5309277,-6.1861944
51402,SanFernandoCentro,36.4757694,-6.1940833
51404,SegundaAguada,36.5134777,-6.2770083
51405,Cádiz,36.5290083,-6.2882055
51406,SanFernando-BahíaSur,36.4680361,-6.2067638
51407,Cadiz-Cortadura,36.4943222,-6.2682444
51409,Cádiz-Estadio,36.5028972,-6.2720638
51414,SanSeveriano,36.5215444,-6.28075
51415,LasAletas,36.5446083,-6.199
51416,Universidad,36.5300472,-6.2050222
51417,Valdelagrana,36.5848055,-6.2160444
51419,RíoArillo,36.457463,-6.224761
51450,Pelagatos,36.408705,-6.134312
51451,LaHoya,36.411233,-6.139086
51452,ReyesCatólicos,36.414380,-6.143180
51453,NuestraSeÑoraDeLosRemedios,36.420382,-6.144749
51454,AlamedaSolano,36.425359,-6.144507
51455,Marquesado,36.428621,-6.143365
51456,PinarDeLosFranceses,36.440507,-6.144541
51457,TresCaminos,36.466538,-6.175692
51458,VentaDeVargas,36.467726,-6.191055
51459,PlazaDeLaIglesia,36.466150,-6.195786
51460,PlazaDelRey,36.463931,-6.198344
51461,CompaÑíaDeMaría,36.460383,-6.201073
51462,PlazaDelCarmen,36.458082,-6.203625
51463,SantoEntierro,36.455906,-6.209612
51464,LaArdila,36.456230,-6.216026
54405,álora,36.819825,-4.6994424
54406,Pizarra,36.7640611,-4.7116694
54407,Aljaima,36.7331166,-4.6644194
54408,Cártama,36.7337555,-4.6082320
54410,Campanillas,36.7047333,-4.5456194
54412,LosPrados,36.6985157,-4.4781625
54500,MalagaM.z.Cercanias,36.7102500,-4.4329010
54501,VictoriaKent,36.7011222,-4.4544444
54503,Guadalhorce(apd),36.6920138,-4.4838277
54505,MálagaAeropuerto,36.6757,-4.48725
54508,LaColina(apd),36.6418944,-4.4926472
54509,Torremolinos,36.6225361,-4.4995805
54510,ElPinillo(apd),36.6098194,-4.5153694
54511,Benalmádena/ArroyoDeLaMiel,36.5990583,-4.5362333
54512,Torremuelle-Benalmadena(apt),36.5822333,-4.5671138
54513,Carvajal(apt),36.5701333,-4.593975
54514,Torreblanca(apd),36.5649222,-4.6067666
54515,LosBoliches(apd),36.5549140,-4.6143560
54516,Fuengirola,36.5429388,-4.6228027
54517,MalagaCentroAlameda,36.7156668,-4.4287461
54518,LosAlamos(apd),36.6450055,-4.4851111
54519,MontemarA,36.6138388,-4.5091305
54520,Plza.mayor,36.6561722,-4.4803138
60100,Madrid-VillaverdeBajo,40.3536351,-3.6839896
60101,SanCristóbalIndustrial,40.3319352,-3.6986743
60102,GetafeIndustrial(alicante),40.3054448,-3.7078159
60103,Pinto,40.2427782,-3.7036626
60104,Valdemoro,40.1960018,-3.6649777
60105,Ciempozuelos,40.1590740,-3.6101107
60107,SanCristobalDeLosAngeles,40.3408068,-3.6839943
60109,ElCasar,40.3186333,-3.7100083
60200,Aranjuez,40.0348585,-3.6182315
60911,Alicante/Alacant,38.34445,-0.4950527
60913,SantVicentCentre,38.3972495,-0.5326435
60914,UniversidadDeAlicante,38.3847998,-0.5281080
61200,Murcia,37.97465,-1.1299555
62001,Beniel,38.0447361,-0.9994472
62002,Orihuela-MiguelHernández,38.0779194,-0.94445
62003,CallosaDeSegura,38.1235694,-0.8732888
62100,Albatera-Catral,38.1670972,-0.8383583
62101,Crevillent,38.2245805,-0.7817972
62102,Elche/ElxCarrús,38.2690055,-0.7063555
62103,ElcheParque/ElxParc,38.2717784,-0.6952109
62104,Torrellano,38.2896027,-0.5825138
62108,Elx-Mercancias,38.2785340,-0.6536870
62109,SantGabriel,38.3287722,-0.5089444
64003,Moixent/Mogente,38.8776138,-0.7536722
64004,Vallada(apt-Cgd),38.9088166,-0.6902666
64005,Montesa(apt),38.9428444,-0.6411055
64006,Alcudia,38.9690638,-0.5864111
64007,L\'ènovaManuel,39.0501935,-0.4778516
64100,Xàtiva,38.9920972,-0.5244888
64102,LaPoblaLlarga,39.083475,-0.4697027
64103,Carcaixent,39.1204694,-0.4543833
64104,Alzira,39.1531194,-0.4506000
64105,Algemesí,39.1931111,-0.4409083
64107,Benifaió-Almussafes,39.2842194,-0.4299500
64200,Silla,39.3617388,-0.4149472
64201,Catarroja,39.3999611,-0.3991916
64202,Massanassa,39.4091638,-0.3953194
64203,Alfafar-Benetússer,39.4223277,-0.3926
65000,Valencia-EstaciòDelNord,39.4669346,-0.3771842
65001,Roca-Cúper,39.5261277,-0.3237777
65002,ValenciaF.s.l-HospitalLaFe,39.4414666,-0.3698944
65003,Valencia-Cabanyal,39.4689527,-0.3345694
65005,Albuixech,39.5433,-0.3205777
65006,Massalfassar-Albuixech,39.5556333,-0.3182861
65007,ElPuig,39.5882111,-0.3116472
65008,Puçol,39.6171903,-0.3048578
65200,Sagunt/Sagunto,39.6756611,-0.2715972
65201,LesValls,39.7192801,-0.2397542
65202,Almenara,39.7487555,-0.2183805
65203,LaLlosa,39.7680118,-0.2030695
65204,Chilches,39.7825944,-0.1903333
65205,Moncofa,39.8208638,-0.1626861
65206,Nules-LaVilavella,39.8531222,-0.1527555
65207,Burriana-AlqueríasNiÑoPerdido,39.8964287,-0.1038666
65208,Vila-Real,39.9330222,-0.0967722
65209,Almassora/Almazora,39.9548444,-0.0767722
65300,Castelló,39.9882552,-0.0524126
65304,Orpesa/OropesaDelMar,40.0922580,0.13986100
65306,Torreblanca,40.2122110,0.19877900
65308,AlcalàDeXivert,40.3046900,0.22871700
65311,Benicarló-PeÑíscola,40.4276390,0.41521700
65312,Vinaròs,40.4716820,0.45572700
65314,Ulldecona-Alcanar-LaSénia,40.5959240,0.44927000
65318,Benicàssim,40.0579451,0.05776460
65400,Tortosa,40.8073390,0.52293700
65401,Camp-Redó,40.7591350,0.55583400
65402,L\'aldea-Amposta,40.7535420,0.61431400
65403,Camarles-Deltebre,40.7747570,0.67164700
65404,L\'ampolla-Perelló,40.8120110,0.70822100
65405,L\'ametllaDeMar,40.8861880,0.80042700
65407,L\'hospitaletDeL\'infant,40.9958630,0.92073300
65409,Cambrils,41.0816480,1.0460550
65411,Salou-PortAventura,41.0870700,1.14548600
65420,L\'hospitaletDeL\'infant,40.9958630,0.92073300
65422,Cambrils,41.0816480,1.0460550
66200,Utiel,39.5717140,-1.2036330
66201,SanAntonioDeRequena,39.5222444,-1.1503527
66202,Requena,39.4912,-1.104675
66203,ElRebollar,39.4772611,-1.0115972
66204,SieteAguas,39.4568638,-0.9030444
66205,VentaMina-SieteAguas,39.4542861,-0.8701861
66206,BuÑol,39.427175,-0.7868888
66207,Chiva,39.4710444,-0.7228888
66208,Cheste,39.4908222,-0.6862916
66209,Loriguilla-Reva,39.4857027,-0.5673694
66210,CircuitRicardoTormo,39.4955527,-0.6255277
66211,Aldaia,39.4610444,-0.4632388
66212,ValenciaSantIsidre,39.4526833,-0.4058694
66214,Xirivella-Alqueries,39.4625527,-0.4321861
67211,Caudiel(apt),39.9473166,-0.5720277
67212,Jérica-Viver(apt),39.9146309,-0.5689031
67213,Navajas(apt),39.8740271,-0.5060235
67214,Segorbe-Arrabal,39.85445,-0.4932694
67215,Segorbe,39.8469583,-0.4824138
67216,Algimia-C,39.7460638,-0.3673135
67217,Soneja,39.81255,-0.4318972
67221,Estivella-AlbalatDelsTarongers,39.7063753,-0.3483269
67223,Gilet(apd),39.6792861,-0.3206055
69101,ElRomani,39.3029777,-0.3941055
69102,Sollana(apt),39.2793083,-0.3793138
69103,Sueca,39.2055611,-0.307825
69104,Cullera,39.1778305,-0.2632361
69105,TavernesDeLaValldigna,39.0790027,-0.2262833
69107,Xeraco,39.0262694,-0.2146694
69110,Gandía,38.9702805,-0.1797722
69111,Platja-Gan,38.9913319,-0.1611829
69200,Xiriv_l´al,39.4636472,-0.4209361
70001,Vallecas,40.3820447,-3.6246888
70002,AsambleaDeMad.Entrevías,40.3816176,-3.6679819
70003,ElPozo,40.3760524,-3.6562354
70005,Vallecas,40.3823640,-3.6230420
70100,Vicálvaro,40.4012112,-3.5959811
70101,SanFernandoHenares,40.4425370,-3.5344609
70102,TorrejónDeArdoz,40.4547384,-3.4797415
70103,AlcalaDeHenares,40.4889113,-3.3662523
70104,Meco(apd-Cgd),40.5344356,-3.2990455
70105,Azuqueca,40.5610437,-3.2653569
70107,AlcaláHenares-Universidad(apd),40.5052933,-3.3352443
70108,Coslada(apd),40.4232210,-3.5611137
70109,SantaEugenia,40.3869128,-3.6089604
70111,LaGarena,40.4804888,-3.3930758
70112,SotoDelHenares,40.4638889,-3.4422222
70200,Guadalajara,40.6441032,-3.1822298
70800,Casetas,41.72265,-1.020175
70801,Utebo,41.7105305,-0.9979222
70806,ZaragozaPortillo,41.6526636,-0.896165
70807,ZaragozaGoya,41.644103,-0.891188
71100,ZaragozaMiraflores,41.62977,-0.863064
71102,ElBurgoDeEbro,41.5665270,-0.7398390
71103,FuentesDeEbro,41.5150650,-0.6186250
71104,PinaDeEbro,41.4800970,-0.5572770
71105,Quinto,41.4195280,-0.4906730
71108,LaZaida-Sástago,41.3205420,-0.4271150
71109,Azaila,41.2761780,-0.4858230
71200,LaPueblaDeHíjar,41.2244000,-0.4385950
71201,Samper,41.1821830,-0.3687610
71202,Escatrón,41.2126740,-0.2899790
71203,Chiprana,41.2315810,-0.1544950
71204,Caspe,41.2397380,-0.0427010
71205,ValDePilas,41.2300560,0.07014500
71206,Fabara,41.2344050,0.14328400
71207,Nonaspe,41.2137880,0.24247200
71208,Faió-LaPoblaDeMassaluca(fayón),41.2252470,0.35027500
71209,Riba-RojaD\'ebre,41.2484510,0.48088800
71210,Flix,41.2295020,0.54007100
71211,Ascó,41.1824790,0.56896400
71300,MóraLaNova,41.1063740,0.65289300
71301,ElsGuiamets,41.0934620,0.74717300
71302,Capçanes,41.1020570,0.78033000
71303,Marçà-Falset,41.1309450,0.81032800
71304,Pradell,41.1332400,0.85837100
71305,Duesaigües-L\'argentera,41.1437760,0.92094200
71306,Riudecanyes-Botarell,41.1400270,0.97564800
71307,LesBorgesDelCamp,41.1655250,1.02077400
71400,Reus,41.1605240,1.09997900
71401,Vila-Seca,41.1127440,1.15038900
71500,Tarragona,41.1116240,1.25321400
71502,Altafulla-Tamarit,41.1364460,1.37453000
71503,Torredembarra,41.1428570,1.40566000
71600,SantVicençDeCalders,41.186245,1.526315
71601,Calafell,41.188736,1.567244
71602,SegurDeCalafell,41.192544,1.607745
71603,Cunit,41.195912,1.631307
71604,Cubelles,41.204112,1.671807
71700,VilanovaILaGeltrú,41.219993,1.733331
71701,Sitges,41.237757,1.81694
71703,Garraf(apt),41.254712,1.904007
71704,PlatjaDeCastelldefels,41.2670124,1.9567717
71705,Castelldefels,41.2785574,1.9784252
71706,Gavà,41.304209,2.012793
71707,ElPratDeLlobregat,41.330762,2.088982
71708,BellvitgeIGornal,41.354261,2.115549
71709,Viladecans,41.309407,2.0277
71801,Barcelona-Sants,41.37922,2.140624
71802,Barcelona-PasseigDeGracia,41.392281,2.164896
72100,RodaDeBarà,41.1840520,1.44015300
72101,RodaDeMar,41.1863150,1.45514430
72201,ElVendrell,41.220531,1.537775
72202,L\'arboc,41.273412,1.600516
72203,ElsMonjos,41.316708,1.662007
72204,VilafrancaDelPenedes,41.344856,1.703676
72205,LaGranada,41.370925,1.725083
72206,Lavern-Subirats(apd),41.395755,1.768162
72207,SantSadurniD\'anoia,41.419824,1.794186
72208,Gelida(apd),41.4484539,1.8654326
72209,MartorellCentral,41.479459,1.929874
72210,Castellbisbal,41.473263,1.967619
72211,ElPapiol(apd),41.435304,2.002477
72300,MolinsDeRei,41.409953,2.020864
72301,SantFeliuDeLlobregat,41.383049,2.048042
72302,SantJoanDespi(apd),41.368619,2.060305
72303,Cornella,41.357469,2.070566
72305,L\'hospitaletDeLlobregat,41.364129,2.100766
72400,ElPratAeroport,41.303844,2.07218
72501,RubiCanVallhonrat,41.475318,2.037135
72502,SantCugatCollFava,41.481295,2.080439
72503,CerdanyolaUniversiti,41.496992,2.115035
72508,SantaPerpetuaDeMogodaRieraDeCaldes,41.5246497,2.1877809
73001,PuigverdDeLleida-ArtesaDeLleida,41.5536500,0.73305800
73002,Juneda,41.5438790,0.82558400
73003,LesBorgesBlanques,41.5214610,0.87771500
73004,LaFloresta,41.5042630,0.92430300
73005,Vinaixa,41.4250770,0.97030800
73006,Vimbodí,41.4026100,1.04600800
73007,L\'esplugaDeFrancolí,41.4005250,1.10338900
73008,Montblanc,41.3766480,1.16543100
73009,Vilaverd,41.3376020,1.17659900
73010,LaRiba,41.3183540,1.18124800
73100,LaPlana-Picamoixons,41.3059700,1.19766500
73101,Alcover,41.2616580,1.17422800
73102,LaSelvaDelCamp,41.2102840,1.14407200
75101,Alcoletge,41.6542670,0.68570700
75102,VilanovaDeLaBarca,41.6873810,0.72789800
75103,Térmens,41.7165250,0.76304600
75104,VallfogonaDeBalaguer,41.7557510,0.80561200
75105,Balaguer,41.7893330,0.81475000
75106,Gerb,41.8233290,0.81202300
75107,SantLlorençDeMontgai,41.8664090,0.83242400
75108,VilanovaDeLaSal,41.9120660,0.83030500
75109,SantaLiÑa,41.9317760,0.85243300
75110,Ager,42.0067390,0.85161700
75111,Cellers-Llimiana,42.0586990,0.88286800
75112,GuardiaDeTremp,42.1014190,0.88804700
75113,Palau-Puigcercos,42.1469550,0.89244100
75114,Tremp,42.1673640,0.89113700
75115,SalasDePallars,42.2068450,0.94044700
75116,LaPoblaDeSegur,42.2398540,0.96610700
76001,Salomó,41.2234740,1.37661700
76002,Vilabella,41.2403120,1.31560100
76003,Nulles-Bràfim,41.2503060,1.29744900
76004,Valls,41.2896300,1.25873400
77002,Montcada-Ripollet,41.496658,2.182072
77003,SantaPerpetuaDeMogodaLaFlorida,41.521426,2.193917
77004,Mollet-SantaRosa,41.535064,2.205846
77005,ParetsDelVallés,41.560527,2.255996
77006,Granollers-Canovelles,41.6113633,2.2769926
77100,LesFranquesesDelVallés,41.624639,2.298077
77102,LaGarriga,41.684575,2.288761
77103,Figaró,41.7233684,2.271161
77104,SantMartíDeCentelles,41.760542,2.24972
77105,Centelles,41.797834,2.223428
77106,ElsHostaletsDeBalenyà,41.843129,2.250218
77107,Balenyà,41.852564,2.264253
77109,Vic,41.930805,2.248776
77110,Manlleu,41.998912,2.269314
77111,Torelló,42.05217,2.259369
77112,Borgonyà(apd),42.065014,2.241286
77113,SantQuirzeDeBesora-Montesquiu,42.104658,2.216977
77114,LaFargaDeBebié,42.130061,2.203924
77200,Ripoll,42.195536,2.195977
77301,Campdevànol,42.221558,2.165877
77303,RibesDeFreser,42.301158,2.166078
77304,Planoles(apt),42.313559,2.103078
77305,Toses(apt),42.324189,2.029728
77306,LaMolina,42.344529,1.956006
77307,Urtx-Alp(apt),42.375375,1.899526
77309,Puigcerdà,42.428908,1.924085
77310,LaTourDeCarol,42.458629,1.904703
78005,VillanuevaDeGállego,41.7655100,-0.8222040
78100,Zuera,41.8771660,-0.7641720
78200,Tardienta,41.9757160,-0.5382230
78201,GraÑén,41.9380330,-0.3693290
78202,Marcen-PoleÑino,41.8819110,-0.2834560
78203,SariÑena,41.8175290,-0.1707600
78300,Selgua,41.9063330,0.14818700
78301,Monzón-RíoCinca,41.9136790,0.19693900
78302,Binéfar,41.8497680,0.29147800
78400,Lleida-Pirineus,41.6206960,0.63266900
78402,Bell-LlocD\'urgell,41.6316190,0.78154700
78403,Mollerussa,41.6317790,0.89677500
78404,Golmés,41.6359290,0.93086300
78405,CastellnouDeSeana,41.6374640,0.96773600
78406,Bellpuig,41.6325450,1.01299300
78407,Anglesola,41.6464480,1.07919200
78408,Tàrrega,41.6503870,1.13896300
78500,Cervera,41.6736110,1.27477300
78501,SantGuimDeFreixenet,41.6559240,1.42053000
78502,SantMartíSesgueioles,41.7012170,1.48620400
78503,Calaf,41.7303340,1.51509700
78504,Seguers-SantPereSallavinera,41.7479910,1.57416700
78505,AguilarDeSegarra,41.7389170,1.62372000
78506,Rajadell,41.7331590,1.69627500
78600,Manresa,41.720129,1.82899
78604,SantVicençDeCastellet,41.667899,1.863451
78605,CastellbellIElVilar-MonistrolMonts,41.628059,1.869875
78606,Vacarisses,41.6019242,1.8918433
78607,Vacarisses-Torreblanca,41.577138,1.921807
78609,Viladecavalls,41.565479,1.954342
78610,SantMiquelDeGonteres,41.568123,1.975712
78700,TerrassaEstacioNord,41.570159,2.019075
78703,SabadellSud,41.53662,2.105617
78704,SabadellCentre,41.549572,2.114757
78705,BarberáDelVallés,41.507162,2.127558
78706,CerdanyolaDelVallés,41.492582,2.14763
78707,MontcadaIReixac-SantaMaría,41.481232,2.166922
78708,MontcadaIReixac-Manresa,41.483996,2.185513
78709,SabadellNord,41.562871,2.087794
78710,TerrasaEst,41.567261,2.041561
78800,MontcadaBifurcació,41.468992,2.178904
78801,TorreBaroYVallbona,41.460945,2.181042
78802,Barcelona-FabraIPuig,41.430893,2.183095
78804,Barcelona-ArcDeTriomf,41.391864,2.180076
78805,Barcelona-PlaçaDeCatalunya,41.386726,2.166458
78806,BarcelonaLaSagreraMeridiana,41.422638,2.187262
79004,Barcelona-SantAndreu,41.435807,2.193572
79005,MontcadaIReixac,41.483833,2.188193
79006,Mollet-SantFost,41.530069,2.215485
79007,Montmelo,41.5519598,2.2517501
79009,Barcelona-ElClot,41.41745,2.192893
79011,Llagosta,41.510428,2.199740
79100,GranollersCentre,41.594528,2.29107
79101,Cardedeu,41.6354891,2.3576977
79102,LlinarsDelValles,41.636058,2.403675
79103,Palautordera(apd),41.670899,2.452823
79104,SantCeloni,41.686024,2.491262
79105,Gualba,41.714078,2.533778
79106,RiellsIViabrea-Breda,41.723357,2.560075
79107,Hostalric,41.747657,2.632175
79109,LesFranqueses-GranollersNord,41.617306,2.292859
79200,Maçanet-Massanes,41.778657,2.678775
79202,Sils,41.8076830,2.74486000
79203,CaldesDeMalavella,41.8410980,2.80076500
79204,Riudellots,41.8962320,2.81159900
79205,FornellsDeLaSelva,41.9351570,2.80973200
79300,Girona,41.9793030,2.81700600
79301,Celrà,42.0272300,2.87496900
79302,Bordils-Juià,42.0370680,2.91525500
79303,Flaçà,42.0475960,2.95750600
79304,SantJordiDesvalls,42.0683190,2.96453300
79305,Camallera,42.1223590,2.96544800
79306,SantMiquelDeFluvià,42.1720870,2.98966300
79308,Vilamalla,42.2162020,2.97787400
79309,Figueres,42.2650650,2.96878700
79311,Vilajuïga,42.3257390,3.08538500
79312,Llançà,42.3665949,3.14898700
79314,Colera,42.4070680,3.15426200
79315,Portbou,42.4244940,3.15785800
79316,Cerbère,42.4414760,3.16325900
79400,Barcelona-EstacióDeFrança,41.384089,2.187004
79403,SantAdriàDeBesòs(apd),41.424665,2.230761
79404,Badalona,41.445802,2.249257
79405,Montgat,41.463418,2.271692
79406,Montgat-Nord(p),41.468941,2.286615
79407,ElMasnou,41.477702,2.314362
79408,Ocata(apd),41.483293,2.337839
79409,PremiáDeMarApeadero,41.488348,2.357075
79410,VilassarDeMar,41.501746,2.392842
79412,CabreraDeMar,41.5065238,2.3992054
79500,Mataró,41.533245,2.445797
79501,SantAndreuDeLlavaneres(apt),41.55596,2.50184
79502,CaldesD\'estrac,41.569216,2.527982
79600,ArenysDeMar,41.578795,2.552336
79601,CanetDeMar,41.587123,2.583146
79602,SantPolDeMar,41.600184,2.627001
79603,Calella,41.614691,2.666203
79604,PinedaDeMar,41.622203,2.693515
79605,MalgratDelMar,41.642728,2.744502
79606,Blanes,41.672594,2.769389
79607,Tordera,41.70643,2.721235
79608,Sta.susann,41.629763,2.714036
97100,Pitis,40.4954011,-3.7260638
97200,Mirasierra-PacoDeLucía,40.499662,-3.709016
97201,Madrid-RamónYCajal,40.4882980,-3.6946827
98003,FteDeLaMora,40.4847940,-3.6628860
98304,Valdebebas,40.482,-3.616292
98305,Madrid-AeropuertoT4,40.49174,-3.593473
